~VERSION INFORMATION
 VERS.                  2.0 : CWLS LOG ASCII STANDARD -VERSION 2.0
 WRAP.                   NO : ONE LINE PER DEPTH STEP
~WELL INFORMATION
 STRT.FT        5000.0000           :START DEPTH
 STOP.FT        6500.0000           :STOP DEPTH
 STEP.FT           0.5000           :STEP
 NULL.          -999.25             :NULL VALUE
 WELL.           MELANIE-1          :WELL NAME
 UWI.            42-123-45678       :UNIQUE WELL ID
 FLD.            SOUTH PARS         :FIELD NAME
 LOC.            OFFSHORE ABU DHABI :LOCATION
 CTRY.           UAE                :COUNTRY
 OPER.           ADNOC              :OPERATOR
 SRVC.           SCHLUMBERGER       :SERVICE COMPANY
 DATE.           2024-03-15         :LOG DATE
~CURVE INFORMATION
 DEPT.FT         00 001 00 0        :DEPTH
 GR   .GAPI      00 031 00 0        :GAMMA RAY
 SP   .MV        00 060 00 0        :SPONTANEOUS POTENTIAL
 CALI .IN        00 022 00 0        :CALIPER
 RT   .OHMM      00 060 00 0        :DEEP RESISTIVITY (AT90)
 RXO  .OHMM      00 060 00 0        :FLUSHED ZONE RESISTIVITY
 NPHI .V/V       00 042 00 0        :NEUTRON POROSITY (LIME)
 RHOB .G/C3      00 045 00 0        :BULK DENSITY
 DT   .US/F      00 046 00 0        :SONIC TRANSIT TIME
 PEF  .B/E       00 050 00 0        :PHOTOELECTRIC FACTOR
 DRHO .G/C3      00 045 00 0        :DENSITY CORRECTION
~PARAMETERS
 MUD .           WATER              :MUD TYPE
 BHT .F          180.0000           :BOTTOM HOLE TEMPERATURE
 FD  .G/C3       1.0000             :FLUID DENSITY
~ASCII DATA
# ...
   5301.50    80.0789   -64.2557     8.0527     6.7325     3.1573     0.0897     2.3332    87.7734     1.2408    -0.0568
   5302.00    72.5607   -72.0908     8.1421    17.7510     4.7112     0.0685     2.3140    97.3882     2.0972    -0.0792
   5302.50    84.2867   -72.0052     8.2420    10.1432     4.3168     0.0745     2.2930    91.3868     2.1290     0.0291
   5303.00    63.1009   -62.6655     8.1447    18.0502     7.5427     0.0887     2.3374    93.9236     2.0332     0.0574
   5303.50    59.3526   -74.7926     8.2440    16.1259     9.0061     0.1133     2.3774    91.1886     1.6935    -0.0102
   5304.00    55.0984   -70.0898     8.2920    18.7536     5.5255     0.0970     2.3226    90.0125     1.9458    -0.0219
   5304.50    81.3147   -67.8123     8.3203    13.3232     7.2765     0.0729     2.3324    93.5282     1.9056     0.0684
   5305.00    74.5991   -67.3941     8.1016     8.8103     3.5777     0.1012     2.3657    95.1552     1.8574    -0.0078
   5305.50    68.9371   -68.8147     8.4441    13.4824     5.9471     0.0804     2.3462    93.4020     2.2509    -0.0026
   5306.00    71.6390   -65.9082     8.3014    17.4119     9.7381     0.1058     2.2894    90.3107     1.7628     0.0678
   5306.50    60.4124   -64.3908     8.2246    20.8700     9.3388     0.1384     2.3401   102.7251     2.0390    -0.0141
   5307.00    88.9993   -64.1495     8.3340    10.8129     4.6857     0.0806     2.3830    95.4406     2.2182    -0.0262
   5307.50    70.4837   -72.7191     8.4618    20.8842     8.7685     0.1037     2.3371    94.5987     2.0594     0.0326
   5308.00    70.3415   -69.1779     8.0815    12.6176     4.5819     0.0726     2.2565    90.6934     2.2350    -0.0285
   5308.50    75.2886   -61.7502     8.2031    17.0606     6.7855     0.0852     2.3510    89.8304     2.1032    -0.0058
   5309.00    73.3464   -63.2174     7.9880    13.1135     4.5460     0.0879     2.3339    90.8198     2.0800    -0.0528
   5309.50    71.3051   -74.5213     8.2453    16.1162     6.3893     0.0833     2.2855    94.8569     2.0712     0.0074
   5310.00    63.2057   -65.8658     8.2628    19.9116     4.9919     0.1363     2.2906    88.5941     2.1243     0.0027
   5310.50    73.3164   -77.4802     8.2225    10.5296     4.5892     0.0808     2.3708    88.3144     1.9282     0.0387
   5311.00    84.6157   -67.3201     8.1612    12.3899     4.8367     0.0986     2.3201    93.0907     1.7487     0.0343
   5311.50    80.3376   -58.0314     8.0219    16.0368     5.9976     0.0481     2.3154    92.3826     2.2036     0.0221
   5312.00    82.3341   -72.2249     8.2644    31.1377    13.0147     0.0953     2.3421    89.0669     2.2489     0.0158
   5312.50    65.5131   -71.6221     8.3728    11.6759     3.5062     0.1094     2.3244    88.0570     2.0708    -0.0029
   5313.00    61.6999   -63.5951     8.1684    27.8563    16.3892     0.0759     2.3473    95.5969     1.9145     0.0244
   5313.50    68.6242   -75.0938     8.2717    27.5190    10.7836     0.0361     2.3388    92.3067     1.7164    -0.0445
   5314.00    70.0897   -70.5078     8.0711    14.6272     5.6827     0.0854     2.3094    87.0976     2.0489    -0.0940
   5314.50    78.4106   -64.3259     8.2738    13.7515     4.5348     0.0864     2.3306    87.2596     1.7658     0.0465
   5315.00    56.1303   -70.4433     8.1890    12.2006     4.9037     0.1005     2.3598    90.0082     1.7416     0.0270
   5315.50    81.9191   -68.4153     8.1523    14.6899     7.7544     0.1261     2.3483    93.2433     2.0391    -0.0051
   5316.00    68.4311   -63.4779     8.1527     9.8169     4.8307     0.0782     2.3452    92.7819     1.8944     0.0430
   5316.50    66.2923   -65.0542     8.1896    14.6107     6.9334     0.0686     2.4063    94.3438     2.1201    -0.0293
   5317.00    61.6225   -65.7908     8.2674    23.3871    10.4351     0.0622     2.3707    86.4295     2.0230    -0.0282
   5317.50    56.4922   -68.7831     8.0982    12.4073     4.6195     0.0894     2.3749    91.5238     1.9374    -0.0338
   5318.00    76.3278   -65.1996     8.1899    13.8444     4.1436     0.0950     2.3449    95.0817     1.7217     0.0227
   5318.50    70.3402   -67.6308     8.2257     8.9195     3.4272     0.0744     2.3570    94.7539     1.8960    -0.0633
   5319.00    59.4449   -64.6851     8.1201    16.5978     6.3332     0.1008     2.3380    91.7836     1.9073    -0.0307
   5319.50    59.4147   -69.4205     8.4099    16.0365     7.9117     0.0944     2.3749    97.7023     1.8294     0.0116
   5320.00    67.0995   -67.8102     8.1451    15.0759     6.4153     0.0859     2.3488    92.4373     2.0126    -0.0482
   5320.50    83.1482   -71.8084     8.1637    13.8378     7.6413     0.0669     2.3593    93.6888     1.8529    -0.0264
   5321.00    67.7292   -66.9947     8.1331    13.5053     6.8640     0.0752     2.3580    90.6449     2.0535    -0.0885
   5321.50    57.7905   -70.8354     8.4110    17.1145     6.2485     0.0361     2.3532    88.1196     2.1383     0.0242
   5322.00    67.8592   -72.3112     8.2866    14.5728     4.0708     0.0893     2.4425    87.7877     1.9290    -0.0275
   5322.50    67.6526   -65.4081     8.1379    16.1309     8.5127     0.0851     2.3349    90.9090     2.1833    -0.0440
   5323.00    48.2682   -65.5978     8.3424    15.6297     8.2051     0.0882     2.3351    89.6803     1.8300    -0.0518
   5323.50    69.4177   -62.7070     8.2521    20.4941     6.2377     0.0944     2.3768    84.9596     1.8838    -0.0167
   5324.00    68.0130   -68.7367     8.2580    17.8970     9.6812     0.0920     2.3387    87.1384     2.0876    -0.0632
   5324.50    75.4384   -64.5002     8.1980    15.4532     6.6722     0.0820     2.3483    89.2109     2.2517     0.0777
   5325.00    84.6683   -63.7457     8.1578    22.9633     9.4853     0.0851     2.3250    92.2982     2.2918    -0.0954
   5325.50    78.8969   -64.2348     8.2667    16.4918     9.1114     0.0559     2.3729    90.0184     2.4449    -0.0180
   5326.00    67.7408   -70.5457     8.1786    21.4704    11.2382     0.0722     2.3739    89.8005     2.0511     0.0043
   5326.50    61.0469   -65.6291     8.4151    17.3860     7.9220     0.0848     2.3498    87.0059     2.1050    -0.0310
   5327.00    90.4930   -64.5135     8.1067     8.3262     3.6611     0.0690     2.3813    89.9860     1.9280     0.0085
   5327.50    70.3866   -66.2564     8.3875    21.3664     9.6679     0.1009     2.3047    93.8236     1.8879    -0.0320
   5328.00    70.0307   -76.6825     8.2229    15.0188     5.5456     0.0704     2.3398    90.2828     2.1885     0.0612
   5328.50    69.7325   -65.4053     8.2642    14.1759     5.6082     0.0878     2.3564    85.2437     1.9917    -0.0448
   5329.00    71.5162   -55.1025     8.3179    15.6412     5.2234     0.0858     2.3269    85.9606     2.3975    -0.0940
   5329.50    68.7823   -67.9225     8.1717    12.9407     4.8427     0.0983     2.3102    91.4310     1.8626    -0.0519
   5330.00    65.3534   -69.7196     8.3214    15.3382     5.7015     0.1013     2.3539    88.9410     2.2565     0.0155
   5330.50    65.5730   -64.1692     7.9645    11.9775     4.2193     0.0971     2.3846    89.3394     1.9623    -0.0047
   5331.00    69.6909   -64.4305     8.1635    20.9309     8.6045     0.0410     2.4028    87.6741     2.0035     0.0301
   5331.50    65.6102   -59.9850     8.1433    13.7800     5.1662     0.1069     2.3484    90.9716     2.2795     0.0201
   5332.00    64.2593   -72.1940     8.1106    12.6906     5.6126     0.1135     2.3874    88.5076     2.0407    -0.0255
   5332.50    70.8178   -62.2036     8.2147    10.7671     3.1135     0.0733     2.3851    88.7994     2.0769    -0.0196
   5333.00    67.9305   -62.8640     8.2750    15.3780     6.0133     0.0876     2.4031    86.7544     2.0218    -0.0154
   5333.50    82.0060   -66.4822     8.3069    14.9807     6.1520     0.0649     2.3566    92.0218     2.5455     0.0754
   5334.00    48.7697   -64.0332     8.2610    15.8866     5.9719     0.0437     2.3137    88.5420     2.0692     0.0276
   5334.50    78.7128   -60.5342     8.1706    10.3718     4.0081     0.0678     2.3703    90.9775     2.2072     0.0757
