~VERSION INFORMATION
 VERS.                  2.0 : CWLS LOG ASCII STANDARD -VERSION 2.0
 WRAP.                   NO : ONE LINE PER DEPTH STEP
~WELL INFORMATION
 STRT.FT        5000.0000           :START DEPTH
 STOP.FT        6500.0000           :STOP DEPTH
 STEP.FT           0.5000           :STEP
 NULL.          -999.25             :NULL VALUE
 WELL.           MELANIE-1          :WELL NAME
 UWI.            42-123-45678       :UNIQUE WELL ID
 FLD.            SOUTH PARS         :FIELD NAME
 LOC.            OFFSHORE ABU DHABI :LOCATION
 CTRY.           UAE                :COUNTRY
 OPER.           ADNOC              :OPERATOR
 SRVC.           SCHLUMBERGER       :SERVICE COMPANY
 DATE.           2024-03-15         :LOG DATE
~CURVE INFORMATION
 DEPT.FT         00 001 00 0        :DEPTH
 GR   .GAPI      00 031 00 0        :GAMMA RAY
 SP   .MV        00 060 00 0        :SPONTANEOUS POTENTIAL
 CALI .IN        00 022 00 0        :CALIPER
 RT   .OHMM      00 060 00 0        :DEEP RESISTIVITY (AT90)
 RXO  .OHMM      00 060 00 0        :FLUSHED ZONE RESISTIVITY
 NPHI .V/V       00 042 00 0        :NEUTRON POROSITY (LIME)
 RHOB .G/C3      00 045 00 0        :BULK DENSITY
 DT   .US/F      00 046 00 0        :SONIC TRANSIT TIME
 PEF  .B/E       00 050 00 0        :PHOTOELECTRIC FACTOR
 DRHO .G/C3      00 045 00 0        :DENSITY CORRECTION
~PARAMETERS
 MUD .           WATER              :MUD TYPE
 BHT .F          180.0000           :BOTTOM HOLE TEMPERATURE
 FD  .G/C3       1.0000             :FLUID DENSITY
~ASCII DATA
# ...
   5770.50    22.3185    -3.8618     8.7477    16.8946     8.4615     0.2595     2.4846    47.2706     4.1785    -0.0135
   5771.00    21.3468     2.3025     8.7191    20.9569     6.7494     0.2533     2.4172    51.1861     4.1114    -0.1084
   5771.50    10.0000     7.1889     8.6608    20.3889    10.0380     0.3020     2.4756    49.2003     3.8971     0.1477
   5772.00    10.0000     8.3061     8.6154    24.0588    14.6638     0.2929     2.4897    47.9028     3.9337     0.0057
   5772.50    11.5567     4.9287     8.5166    16.3453     7.6178     0.2984     2.4571    52.3659     4.1526     0.0036
   5773.00    10.0000     5.1904     8.6891    22.7527    10.6596     0.2542     2.4691    47.6740     4.2451    -0.0617
   5773.50    10.0548     7.5762     8.7835    14.9524     6.1873     0.2430     2.4465    48.6363     3.9903    -0.0586
   5774.00    13.6862     4.4140     8.6502    12.0524     4.3407     0.2764     2.4231    50.2239     4.0374    -0.0037
   5774.50    17.2903    12.5809     8.8082    12.4761     5.8111     0.2807     2.4174    54.1323     4.1814     0.0134
   5775.00    10.0000     9.8571     8.4644    11.8844     3.5174     0.2816     2.4174    50.5895     4.0096     0.0281
   5775.50    10.0000    10.0697     8.5020    24.9646     9.1854     0.3041     2.4831    51.5980     3.9806     0.0095
   5776.00    10.0000     0.9197     8.7034    11.7157     3.2885     0.2401     2.3879    49.1223     3.8858    -0.0474
   5776.50    10.0000     5.3983     8.6448    20.0501     6.9672     0.2923     2.4421    49.7820     3.8787    -0.1002
   5777.00    10.0000     4.3375     8.7502    17.0638     7.7607     0.2534     2.4387    49.8732     4.5634    -0.0040
   5777.50    10.0000     0.8561     8.6177    17.9332     7.9362     0.2927     2.4527    50.9024     3.9868    -0.0214
   5778.00    14.2086     7.7290     8.5329    27.8612    11.2585     0.2663     2.4050    49.1373     4.2954    -0.0505
   5778.50    10.0000     3.2838     8.5988    16.2376     6.7202     0.2598     2.4724    54.0480     4.3555     0.0331
   5779.00    18.6784     9.2926     8.4674    22.2655     6.1078     0.2642     2.4216    48.9116     3.9783    -0.0630
   5779.50    10.0000     0.7081     8.5082    18.7561     6.9637     0.2477     2.4933    44.9126     4.0850     0.0247
   5780.00    10.0000    14.6974     8.7188    17.7314     6.1890     0.2777     2.4402    58.2660     4.0281    -0.0564
   5780.50    10.0000     1.6635     8.7093    37.0262    12.9815     0.2617     2.4555    49.0590     3.6815     0.0054
   5781.00    10.0000     7.2844     8.6588    12.0603     5.4387     0.2931     2.4580    53.9843     3.6898     0.0374
   5781.50    13.4044    10.1896     8.4508    27.3781     9.2198     0.2904     2.4648    54.2630     4.0062    -0.0135
   5782.00    12.1462     3.4194     8.5875    22.6601     8.0316     0.3116     2.4581    52.8882     3.9077     0.0676
   5782.50    10.0000    10.5770     8.5013    16.1271     4.2495     0.2855     2.4437    49.4626     4.3673     0.0767
   5783.00    10.0000     0.2105     8.7419    30.3813    11.4583     0.2888     2.4663    50.9211     3.9379     0.0095
   5783.50    10.1382    13.6586     8.5664    10.7110     3.4467     0.3066     2.4696    46.2419     4.3716     0.0217
   5784.00    10.0000     6.5101     8.5166    15.9560     6.4843     0.2663     2.4322    56.0405     3.8824     0.0424
   5784.50    10.0000     3.4985     8.6286    12.9940     4.2972     0.2494     2.4674    47.5194     4.3563     0.0218
   5785.00    12.1255     5.0255     8.5621    21.1431     8.6359     0.2834     2.4899    49.3180     4.0713     0.0175
   5785.50    10.0000    10.6067     8.7749    13.3889     5.2028     0.2512     2.4749    50.3817     4.0789    -0.0210
   5786.00    10.0000     3.6803     8.5535    21.3045    11.9059     0.3290     2.4812    49.7677     3.8600    -0.0675
   5786.50    10.0000     2.8960     8.4875    17.7027     7.8214     0.3093     2.4579    48.1247     4.0739    -0.0556
   5787.00    10.0000     5.5751     8.4126    16.2239     4.4919     0.3237     2.4242    54.2839     4.2932     0.0953
   5787.50    10.0000     0.8377     8.6253    21.0632     6.5421     0.2819     2.4275    52.9574     3.9219     0.0129
   5788.00    10.0000    15.8648     8.5726    17.3049     6.9988     0.2919     2.4609    51.0786     3.8791    -0.0098
   5788.50    14.5360     3.9694     8.4864    13.5396     4.4968     0.2719     2.4791    48.9198     3.8937     0.0505
   5789.00    10.0000    10.9985     8.7486    43.5215     9.6147     0.2990     2.5339    53.3174     4.2632    -0.0300
   5789.50    10.0000     7.9266     8.6969    16.2375     8.5074     0.2573     2.4793    48.7375     4.1064     0.0233
   5790.00    10.0000     1.9952     8.6278     9.6679     4.4663     0.2310     2.4143    54.8485     4.2209     0.0031
   5790.50    14.0945     6.9265     8.7675    14.6156     6.4883     0.2663     2.4259    50.4776     3.9902     0.0184
   5791.00    10.0000    10.9144     8.6978    12.8733     4.5604     0.2532     2.5168    53.8401     3.9314    -0.0135
   5791.50    10.0000     6.0910     8.5497    24.1383    10.5175     0.3121     2.4415    49.8162     4.0044    -0.0386
   5792.00    10.0000    13.0355     8.5285    20.7607     7.2131     0.3191     2.4489    50.3794     4.1296    -0.0329
   5792.50    10.1400    12.2150     8.7147    21.2592     8.8593     0.2550     2.4182    53.8483     3.8622    -0.0314
   5793.00    10.0000    11.7392     8.6729    16.8909     5.6202     0.3091     2.4934    56.7612     4.1814    -0.0001
   5793.50    10.0000     4.8834     8.6507    17.3671     9.4079     0.3026     2.4610    54.8680     3.9769    -0.0622
   5794.00    10.0000     1.8192     8.5495    16.9066     4.9400     0.2524     2.4223    52.8261     3.4184    -0.0499
   5794.50    10.0000     4.1870     8.6954    18.4529     9.4441     0.2762     2.4152    51.9704     4.0724     0.0054
   5795.00    10.0000     8.2724     8.5595    24.3072     9.7989     0.2727     2.4537    48.6897     3.6372    -0.0051
   5795.50    10.0000    10.0562     8.6253    20.9384     7.5943     0.2995     2.4454    51.1044     4.0595     0.0076
   5796.00    10.0000    -3.4948     8.7807    22.0075     9.1020     0.2602     2.4685    47.4879     4.0639    -0.0018
   5796.50    11.2138     7.3581     8.5703    22.0167    10.1979     0.2830     2.4595    51.3629     3.9455     0.1008
   5797.00    10.0000     8.2245     8.4796    24.7257    12.9994     0.2715     2.4346    51.5643     3.9842     0.0051
   5797.50    10.0000     6.0814     8.5321    20.6876     8.8098     0.2949     2.4258    44.3704     4.0912    -0.0152
   5798.00    10.0000    13.9604     8.7372    21.1431     7.0772     0.2813     2.4368    50.3781     3.7682     0.0040
   5798.50    20.1398     9.6476     8.6637    27.1363    10.9760     0.2752     2.4246    51.5156     4.0220     0.0408
   5799.00    10.0000    14.1241     8.6258    15.5690     8.9562     0.2819     2.4367    50.0291     4.0918    -0.0020
   5799.50    10.0000     6.5275     8.5882    14.7116     7.7051     0.3271     2.4406    51.3638     4.2071     0.0274
   5800.00    10.0000    12.3286     8.6881    13.3317     6.3956     0.2783     2.4127    46.2740     3.6298     0.0158
   5800.50    14.3789    15.8503     8.5551    20.1127     9.4328     0.2660     2.4580    47.9813     3.9286    -0.0116
   5801.00    10.0000    14.2669     8.6710    10.9234     5.0254     0.2987     2.4275    53.4236     3.6504     0.0044
   5801.50    10.0000     2.2810     8.5677    21.8943    11.0418     0.2844     2.4128    50.3305     3.6378     0.0640
   5802.00    10.0000     6.5063     8.5515    18.4556     6.7379     0.2592     2.4271    51.3586     3.9062     0.0097
   5802.50    10.0000     6.0816     8.5780    26.8177     8.1805     0.3324     2.4444    48.7098     3.8458    -0.0394
   5803.00    10.0000    10.2863     8.6046    15.6057     6.3290     0.2809     2.4391    50.4183     4.0551    -0.0128
   5803.50    15.9325    11.3041     8.6377    17.9709     6.1040     0.2806     2.4488    43.4644     3.7527    -0.0846
