~VERSION INFORMATION
 VERS.                  2.0 : CWLS LOG ASCII STANDARD -VERSION 2.0
 WRAP.                   NO : ONE LINE PER DEPTH STEP
~WELL INFORMATION
 STRT.FT        5000.0000           :START DEPTH
 STOP.FT        6500.0000           :STOP DEPTH
 STEP.FT           0.5000           :STEP
 NULL.          -999.25             :NULL VALUE
 WELL.           MELANIE-1          :WELL NAME
 UWI.            42-123-45678       :UNIQUE WELL ID
 FLD.            SOUTH PARS         :FIELD NAME
 LOC.            OFFSHORE ABU DHABI :LOCATION
 CTRY.           UAE                :COUNTRY
 OPER.           ADNOC              :OPERATOR
 SRVC.           SCHLUMBERGER       :SERVICE COMPANY
 DATE.           2024-03-15         :LOG DATE
~CURVE INFORMATION
 DEPT.FT         00 001 00 0        :DEPTH
 GR   .GAPI      00 031 00 0        :GAMMA RAY
 SP   .MV        00 060 00 0        :SPONTANEOUS POTENTIAL
 CALI .IN        00 022 00 0        :CALIPER
 RT   .OHMM      00 060 00 0        :DEEP RESISTIVITY (AT90)
 RXO  .OHMM      00 060 00 0        :FLUSHED ZONE RESISTIVITY
 NPHI .V/V       00 042 00 0        :NEUTRON POROSITY (LIME)
 RHOB .G/C3      00 045 00 0        :BULK DENSITY
 DT   .US/F      00 046 00 0        :SONIC TRANSIT TIME
 PEF  .B/E       00 050 00 0        :PHOTOELECTRIC FACTOR
 DRHO .G/C3      00 045 00 0        :DENSITY CORRECTION
~PARAMETERS
 MUD .           WATER              :MUD TYPE
 BHT .F          180.0000           :BOTTOM HOLE TEMPERATURE
 FD  .G/C3       1.0000             :FLUID DENSITY
~ASCII DATA
# ...
   5402.00    64.6603   -55.1142     8.1850    14.2183     5.2622     0.0823     2.4530    80.4093     2.5216    -0.0229
   5402.50    65.6326   -57.4364     8.3459     5.6820     2.3763     0.0458     2.4462    82.0324     2.8313     0.0203
   5403.00    69.8525   -67.3801     8.2391     9.9228     5.2827     0.1167     2.4171    83.1708     2.7141     0.0633
   5403.50    64.2147   -54.1900     8.1465     8.8880     3.3461     0.0712     2.4290    82.6869     3.0265     0.0136
   5404.00    78.0597   -53.3381     8.3215     8.5030     3.5192     0.0738     2.5007    81.1406     2.8427    -0.0159
   5404.50    60.8256   -62.2885     8.1343    11.7507     5.4357     0.0871     2.5225    79.9556     2.5972     0.0416
   5405.00    66.4560   -55.1451     8.1943    14.6125     6.5301     0.0945     2.4897    82.4056     2.5578    -0.0295
   5405.50    64.4014   -61.4552     8.0677    10.0042     3.5390     0.1213     2.4577    80.7532     2.8585    -0.0519
   5406.00    79.4631   -56.6109     8.1363    11.0446     4.5038     0.0489     2.4337    86.4638     2.3837     0.0325
   5406.50    69.4276   -63.3481     8.2969    10.7176     4.7832     0.0987     2.4204    82.7463     2.7690    -0.0162
   5407.00    76.0775   -65.9174     8.0829    10.3339     3.2985     0.0971     2.4228    78.1561     2.9239    -0.0127
   5407.50    55.9056   -58.7919     8.1316     7.4288     3.8259     0.0796     2.4287    79.4329     2.6712    -0.0251
   5408.00    69.8935   -57.4224     8.2798    14.3245     7.6293     0.0981     2.5103    80.9495     3.0864    -0.0189
   5408.50    74.8411   -58.7178     8.2260    11.1926     3.8745     0.1011     2.5004    84.6424     3.1308     0.0561
   5409.00    68.3489   -62.5751     8.4800    11.5008     4.7820     0.0549     2.4691    84.9165     2.6943     0.0665
   5409.50    76.1809   -58.5798     8.4645     7.9984     3.6379     0.1176     2.4184    79.4339     2.8430     0.0718
   5410.00    63.4849   -55.1590     8.1946     8.8521     3.1748     0.0515     2.4745    77.7605     3.1065     0.0436
   5410.50    78.8639   -56.6550     8.3375     9.6100     4.2327     0.0600     2.4410    77.3160     2.9123     0.0187
   5411.00    85.9460   -55.4428     8.3570     6.3765     2.6353     0.0776     2.3841    81.1968     2.6387    -0.0573
   5411.50    64.6176   -59.6306     8.2227     6.0718     1.8108     0.1214     2.4578    87.2898     2.8939    -0.0075
   5412.00    63.9215   -50.3460     8.1333     8.3899     3.6787     0.0768     2.4244    81.9347     2.7570     0.0863
   5412.50    79.0775   -62.0098     8.2819    11.7188     3.7617     0.0824     2.4259    75.4746     3.1542    -0.0174
   5413.00    80.0518   -53.6153     8.2662     8.2126     3.9639     0.1117     2.4431    78.0172     3.0587     0.0606
   5413.50    63.1969   -50.0677     8.2403     7.3385     2.5666     0.0772     2.4361    78.2623     2.8798     0.0022
   5414.00    63.9825   -53.4965     8.3284     7.7797     3.0131     0.0597     2.4505    77.6069     2.9760    -0.1071
   5414.50    65.0538   -56.8374     8.2095     8.6406     4.5477     0.0750     2.4496    78.8480     2.6909     0.0256
   5415.00    56.5163   -58.3898     8.1697     8.8822     3.9237     0.1108     2.3962    81.0586     2.8068     0.0507
   5415.50    59.8863   -50.4913     8.2961    18.8588     6.0787     0.0849     2.4986    81.9351     3.2732    -0.0020
   5416.00    59.1657   -62.7098     8.3242    13.4748     4.3998     0.1222     2.4240    83.1031     2.9782     0.0493
   5416.50    61.0196   -60.3686     8.1683    13.3161     4.7248     0.0984     2.4254    81.3391     3.1585    -0.0667
   5417.00    66.8474   -57.4287     8.3791    13.8627     6.0005     0.0708     2.4446    73.8427     3.0239    -0.0554
   5417.50    68.9612   -49.1754     8.1096     7.2143     3.1001     0.0848     2.4516    76.4718     3.2454     0.0082
   5418.00    79.4539   -53.3874     8.2292     6.7266     2.2731     0.0668     2.4991    79.1080     2.5878     0.0191
   5418.50    59.0253   -60.0489     8.2615     6.9433     2.1991     0.0706     2.4639    79.9627     2.9549     0.0543
   5419.00    74.8487   -56.6825     8.2241    14.4002     6.0938     0.1736     2.4733    82.0436     3.3265     0.0256
   5419.50    65.2239   -58.1247     8.2315     8.1643     3.1491     0.1045     2.4650    79.5274     3.1938    -0.0477
   5420.00    66.5016   -58.5240     8.4755     6.5900     4.0581     0.1014     2.4642    79.4884     3.2726     0.0085
   5420.50    72.2571   -50.0024     8.2037     8.4037     3.3862     0.0718     2.4670    79.9881     3.0112     0.0240
   5421.00    57.8378   -61.6773     8.5332     8.8764     5.1037     0.1158     2.4002    78.4481     2.9101    -0.0750
   5421.50    69.8397   -46.6961     8.3332    10.3037     3.2613     0.1065     2.4512    79.4122     2.8171    -0.0017
   5422.00    68.0726   -50.5202     8.2990    10.2190     2.9841     0.1222     2.4940    82.4674     2.8081    -0.0134
   5422.50    70.6410   -49.1283     8.3378     7.3705     2.3565     0.1213     2.5779    78.7765     3.1939    -0.0262
   5423.00    68.9748   -56.8183     8.5435    11.5721     5.8716     0.0552     2.4239    78.8759     3.1402     0.0200
   5423.50    86.2638   -55.1742     8.1915     7.7531     4.4062     0.0627     2.4732    78.8040     3.0292    -0.0460
   5424.00    61.4791   -61.5110     8.1792     8.9344     3.0562     0.0649     2.4438    82.7364     3.1492     0.0167
   5424.50    62.2925   -56.8891     8.2161    11.4702     4.1843     0.0662     2.5229    75.4571     3.0810     0.0224
   5425.00    61.5145   -51.7180     8.2952     7.6759     2.4303     0.0916     2.4213    84.0470     3.2500     0.0434
   5425.50    62.0148   -47.6262     8.1198     7.8204     2.1774     0.0739     2.4811    75.1285     3.2530    -0.0449
   5426.00    61.3183   -59.5624     8.2949    11.0446     5.1005     0.1268     2.4206    76.6332     2.8543    -0.0602
   5426.50    75.8880   -55.7741     8.4624     7.1278     2.9812     0.1235     2.4537    80.7682     3.1272     0.0112
   5427.00    77.6982   -54.6229     8.3086     8.1887     3.2824     0.0854     2.4627    81.5630     2.7437    -0.0115
   5427.50    61.7263   -60.7651     8.2645    10.8241     3.2722     0.1247     2.4963    74.1997     3.1091     0.1161
   5428.00    59.5913   -50.7489     8.2323    16.9138     9.3917     0.1155     2.4323    75.0702     3.2083     0.0183
   5428.50    69.9790   -57.2450     8.3844    10.9174     3.9487     0.0768     2.4850    79.1198     2.8297     0.0023
   5429.00    61.7473   -54.5212     8.2123    10.4579     4.6543     0.0458     2.4661    85.2576     3.0142    -0.0069
   5429.50    71.1857   -55.7231     8.4799    10.6081     3.1722     0.0817     2.4742    81.9011     3.1044    -0.0487
   5430.00    67.7026   -57.3290     8.4889     6.5353     2.5164     0.0733     2.4952    77.3561     3.1542     0.0226
   5430.50    53.9100   -53.3363     8.3216     9.3058     3.9457     0.0904     2.4284    70.7809     3.0567    -0.0032
   5431.00    78.3724   -54.2978     8.2952     8.8801     3.7922     0.0881     2.4917    78.2212     2.8829    -0.0031
   5431.50    80.3157   -54.9975     8.3998     9.8353     4.0577     0.0877     2.4507    79.0011     3.1116     0.0038
   5432.00    61.0024   -56.6989     8.4066     9.2185     4.0707     0.0971     2.5011    76.7040     2.7969     0.0088
   5432.50    62.7589   -51.3772     8.2168     9.9434     3.1725     0.0624     2.4787    75.2379     3.0858    -0.0696
   5433.00    68.1030   -44.6248     8.2452     8.0549     3.3517     0.0950     2.4629    78.2054     3.0491     0.0335
   5433.50    68.4471   -52.1113     8.1659     8.9712     3.6711     0.0781     2.4519    74.8390     3.1155    -0.0339
   5434.00    70.9949   -47.7480     8.3395     6.0787     2.5468     0.0910     2.4947    83.2210     3.0354    -0.0055
   5434.50    81.7631   -59.5973     8.3656     7.9555     3.2286     0.1063     2.5083    82.0917     2.8507     0.0514
   5435.00    64.2206   -51.7749     8.1643    13.2468     4.1075     0.0628     2.4549    79.4530     3.0840     0.0712
