~VERSION INFORMATION
 VERS.                  2.0 : CWLS LOG ASCII STANDARD -VERSION 2.0
 WRAP.                   NO : ONE LINE PER DEPTH STEP
~WELL INFORMATION
 STRT.FT        5000.0000           :START DEPTH
 STOP.FT        6500.0000           :STOP DEPTH
 STEP.FT           0.5000           :STEP
 NULL.          -999.25             :NULL VALUE
 WELL.           MELANIE-1          :WELL NAME
 UWI.            42-123-45678       :UNIQUE WELL ID
 FLD.            SOUTH PARS         :FIELD NAME
 LOC.            OFFSHORE ABU DHABI :LOCATION
 CTRY.           UAE                :COUNTRY
 OPER.           ADNOC              :OPERATOR
 SRVC.           SCHLUMBERGER       :SERVICE COMPANY
 DATE.           2024-03-15         :LOG DATE
~CURVE INFORMATION
 DEPT.FT         00 001 00 0        :DEPTH
 GR   .GAPI      00 031 00 0        :GAMMA RAY
 SP   .MV        00 060 00 0        :SPONTANEOUS POTENTIAL
 CALI .IN        00 022 00 0        :CALIPER
 RT   .OHMM      00 060 00 0        :DEEP RESISTIVITY (AT90)
 RXO  .OHMM      00 060 00 0        :FLUSHED ZONE RESISTIVITY
 NPHI .V/V       00 042 00 0        :NEUTRON POROSITY (LIME)
 RHOB .G/C3      00 045 00 0        :BULK DENSITY
 DT   .US/F      00 046 00 0        :SONIC TRANSIT TIME
 PEF  .B/E       00 050 00 0        :PHOTOELECTRIC FACTOR
 DRHO .G/C3      00 045 00 0        :DENSITY CORRECTION
~PARAMETERS
 MUD .           WATER              :MUD TYPE
 BHT .F          180.0000           :BOTTOM HOLE TEMPERATURE
 FD  .G/C3       1.0000             :FLUID DENSITY
~ASCII DATA
# ...
   6072.00    10.0000    -8.2734     8.8579    17.9716     8.3067     0.3063     2.1635    71.2289     1.6631     0.0377
   6072.50    10.0000    -9.5972     8.9617    11.0410     4.5862     0.2736     2.1245    70.8364     1.6111    -0.0796
   6073.00    10.0000   -10.1178     8.8217    21.2608     8.2009     0.3210     2.2174    77.8582     1.8716     0.0450
   6073.50    10.0000    -5.4131     8.7395    15.8024     6.0158     0.2597     2.1529    72.3168     2.0861    -0.0609
   6074.00    10.0000    -7.6037     8.8422    14.2722     7.2100     0.3260     2.2253    70.3638     1.3370     0.0404
   6074.50    10.0000     2.0620     8.7411    11.1645     4.0484     0.3070     2.2089    75.2503     1.6174     0.0156
   6075.00    10.0000   -13.6639     8.7452     7.6550     3.4365     0.2849     2.1558    75.9607     1.6153    -0.0038
   6075.50    10.0000    -6.8981     8.6438    11.7728     4.3921     0.2784     2.1428    76.0422     1.5817    -0.0040
   6076.00    10.0000   -12.2205     8.8885    22.4196    13.2193     0.2761     2.1689    73.2880     1.3659    -0.0101
   6076.50    10.0000   -14.0070     8.7573    14.2105     6.5939     0.2833     2.1713    74.9281     1.3978    -0.0328
   6077.00    10.0000    -9.8010     8.8142    15.2223     7.8114     0.2848     2.1845    72.2763     1.6277    -0.0082
   6077.50    10.0000    -9.1462     8.6925    19.4716     6.9295     0.3107     2.1506    79.3138     1.3890     0.0883
   6078.00    10.0000     4.6714     8.8397    27.4595    13.5725     0.3247     2.1960    77.7845     1.6083     0.0521
   6078.50    10.0000   -10.9267     8.7200    23.7416     8.9211     0.2891     2.1813    77.6633     1.5257    -0.0348
   6079.00    10.0000   -15.7435     8.7821    11.9024     4.8669     0.2679     2.1629    76.8592     1.6017     0.0107
   6079.50    10.0000    -8.8144     8.8842     8.8851     4.9288     0.2737     2.1515    76.0986     1.3812     0.0038
   6080.00    10.0000   -20.6396     8.8755    32.2571    10.4740     0.2807     2.1670    70.8688     1.6018    -0.0057
   6080.50    10.0000   -10.8132     8.7943    31.3512    13.0607     0.2635     2.1478    76.5643     1.3926    -0.0401
   6081.00    10.0000   -10.3604     8.6198    16.7733     7.3236     0.2603     2.1738    75.0696     1.5994     0.0178
   6081.50    10.0000    -6.5549     9.0960    10.8135     4.7995     0.3256     2.1744    78.5794     1.8337     0.0338
   6082.00    10.0000    -5.7472     8.9713    21.1068     7.7149     0.2895     2.1794    77.2741     1.6166    -0.0334
   6082.50    10.0000   -13.2207     8.8691    15.2857     9.2801     0.2665     2.2243    76.5655     1.6273     0.0782
   6083.00    10.0000   -11.5435     8.7216    15.2426     4.7059     0.2993     2.1671    69.9242     1.7250     0.0609
   6083.50    10.0000   -14.7088     8.7856    20.5940    11.0285     0.2591     2.2010    74.7723     1.2794     0.0219
   6084.00    10.0000   -16.6064     8.7427    17.3856     8.8673     0.2605     2.1775    73.4282     1.9025    -0.0493
   6084.50    10.0000    -9.5047     8.9235    11.0039     6.4375     0.2662     2.1632    75.9214     1.3462     0.0161
   6085.00    10.0000   -17.5102     8.8234    14.2283     4.1425     0.3151     2.1665    73.9802     1.7319     0.0113
   6085.50    10.0000   -13.3037     8.7188    19.0994     6.4212     0.2767     2.1681    74.4615     1.7040     0.0205
   6086.00    10.0000   -16.2948     8.7502    18.2294     9.8270     0.2326     2.1780    76.7289     1.3729     0.0636
   6086.50    10.0000    -8.6590     8.9095    16.8983     4.6437     0.3054     2.1406    74.1179     1.7538    -0.0070
   6087.00    10.0000    -2.4888     8.9575    20.6409     5.9876     0.2749     2.1252    75.8416     1.6502     0.0819
   6087.50    13.5315   -18.0926     8.9504    13.9764     5.0704     0.2438     2.1885    70.9811     1.9274     0.0163
   6088.00    10.0000   -20.9386     8.8733    16.4137     6.8225     0.2742     2.1956    73.1046     1.5868    -0.0116
   6088.50    10.0000   -12.3869     8.7724     5.6433     3.1038     0.2907     2.1908    77.6324     1.5252     0.0960
   6089.00    13.1725   -11.7730     8.4736    13.5566     5.2254     0.2881     2.1728    72.0362     1.4427     0.0332
   6089.50    10.0000   -10.8474     8.8275    19.4833     6.9007     0.3157     2.1910    79.5264     1.1958    -0.0182
   6090.00    10.0000   -14.2616     8.7976    13.7616     5.8584     0.2624     2.1891    78.7749     1.4796     0.0034
   6090.50    10.0000   -13.1226     8.8119    13.4334     5.9025     0.2802     2.1911    75.1094     1.4869     0.0254
   6091.00    10.0000   -10.3713     8.8033    11.2884     4.9320     0.2650     2.1415    84.9728     1.5933    -0.0060
   6091.50    10.0000    -7.0963     8.6654    20.8181     8.0360     0.2479     2.1341    79.7683     1.2551     0.0054
   6092.00    10.0000   -22.1635     8.8538    18.1369     4.9069     0.2962     2.1552    73.2536     1.4908    -0.0327
   6092.50    10.0000   -14.3228     8.8613    19.6804     6.5523     0.2875     2.1661    78.4024     1.6527    -0.0674
   6093.00    10.0000   -11.4990     8.8664     9.1406     4.8573     0.2837     2.1591    76.4239     1.6715     0.0043
   6093.50    10.0000   -17.2480     8.8929    14.6002     6.0627     0.2863     2.1099    73.9586     1.1633     0.0056
   6094.00    10.0000    -4.0924     8.8587    14.0653     5.2747     0.2638     2.2176    73.1415     1.6755     0.0211
   6094.50    10.0000   -16.0156     8.7573    14.0433     7.0251     0.2571     2.1575    79.3983     1.4839    -0.0230
   6095.00    10.0000   -13.1354     8.7913    12.6806     4.0461     0.2777     2.1707    74.6821     1.4951    -0.0536
   6095.50    10.0000   -10.2393     8.8076    13.7304     5.2501     0.2999     2.2026    76.2327     1.0582    -0.0386
   6096.00    13.9885   -16.0664     8.8093    19.6268     8.0700     0.3086     2.0947    73.8377     1.8288     0.0422
   6096.50    10.0000   -22.4335     8.8984     8.5566     3.1334     0.2921     2.1495    74.4186     1.5645    -0.0267
   6097.00    10.0000   -15.4348     8.8630    25.8495    10.5503     0.2765     2.1530    76.3447     1.2219    -0.0177
   6097.50    10.0000    -8.2352     9.0064    17.5105     6.7461     0.2811     2.1544    77.9524     1.6022    -0.0125
   6098.00    10.0000   -15.1579     9.0193    14.9317     4.5146     0.2757     2.1590    69.0851     1.5951    -0.0248
   6098.50    10.0000   -17.7967     8.8067    19.8215     8.2217     0.2547     2.2075    76.9632     1.7698    -0.0277
   6099.00    10.0000    -9.0274     8.4151     9.7542     2.9914     0.2754     2.1840    74.7364     1.4625    -0.0348
   6099.50    10.0000   -15.4009     8.9225    12.3340     5.0998     0.2480     2.1924    81.2442     1.5259     0.0560
   6100.00    12.7097   -16.3893     8.7448    14.4974     7.6332     0.2719     2.1648    85.9276     1.3941     0.0272
   6100.50    10.0000   -13.1827     8.7188    22.6118     8.5504     0.3068     2.1213    76.0838     1.6414     0.0499
   6101.00    10.0000   -10.1679     8.7591    14.7813     4.6776     0.2903     2.1006    72.0572     1.3643     0.0580
   6101.50    10.0000    -2.2048     8.7543    17.1301     6.6802     0.2551     2.1170    77.6368     1.3415    -0.0940
   6102.00    10.0000   -10.0690     8.8603    12.5215     4.2408     0.2719     2.1734    76.7321     1.5058     0.0137
   6102.50    10.0000    -8.4979     8.6431    17.2682     7.7794     0.2564     2.1634    83.3246     1.2734    -0.0234
   6103.00    10.5168   -16.9190     8.6913    24.6425     9.5695     0.2716     2.1560    82.4726     1.8382     0.0447
   6103.50    10.0000   -19.6106     8.8335    20.0543    11.2921     0.2934     2.1510    80.1311     1.9025    -0.0297
   6104.00    10.0000   -14.2618     8.8615    14.4954     7.3165     0.2853     2.2222    75.8371     1.4255    -0.0422
   6104.50    10.0000   -14.1299     8.8634    18.1630     7.0462     0.3217     2.1370    79.6926     1.2382    -0.0574
   6105.00    10.0000   -20.1508     8.7206    17.6100     8.1279     0.2956     2.1893    78.5165     1.5821    -0.0121
