~VERSION INFORMATION
 VERS.                  2.0 : CWLS LOG ASCII STANDARD -VERSION 2.0
 WRAP.                   NO : ONE LINE PER DEPTH STEP
~WELL INFORMATION
 STRT.FT        5000.0000           :START DEPTH
 STOP.FT        6500.0000           :STOP DEPTH
 STEP.FT           0.5000           :STEP
 NULL.          -999.25             :NULL VALUE
 WELL.           MELANIE-1          :WELL NAME
 UWI.            42-123-45678       :UNIQUE WELL ID
 FLD.            SOUTH PARS         :FIELD NAME
 LOC.            OFFSHORE ABU DHABI :LOCATION
 CTRY.           UAE                :COUNTRY
 OPER.           ADNOC              :OPERATOR
 SRVC.           SCHLUMBERGER       :SERVICE COMPANY
 DATE.           2024-03-15         :LOG DATE
~CURVE INFORMATION
 DEPT.FT         00 001 00 0        :DEPTH
 GR   .GAPI      00 031 00 0        :GAMMA RAY
 SP   .MV        00 060 00 0        :SPONTANEOUS POTENTIAL
 CALI .IN        00 022 00 0        :CALIPER
 RT   .OHMM      00 060 00 0        :DEEP RESISTIVITY (AT90)
 RXO  .OHMM      00 060 00 0        :FLUSHED ZONE RESISTIVITY
 NPHI .V/V       00 042 00 0        :NEUTRON POROSITY (LIME)
 RHOB .G/C3      00 045 00 0        :BULK DENSITY
 DT   .US/F      00 046 00 0        :SONIC TRANSIT TIME
 PEF  .B/E       00 050 00 0        :PHOTOELECTRIC FACTOR
 DRHO .G/C3      00 045 00 0        :DENSITY CORRECTION
~PARAMETERS
 MUD .           WATER              :MUD TYPE
 BHT .F          180.0000           :BOTTOM HOLE TEMPERATURE
 FD  .G/C3       1.0000             :FLUID DENSITY
~ASCII DATA
# ...
   6474.00    61.1360   -77.2016     8.6437     7.1464     3.2884     0.0919     2.3700    99.1197     3.7696    -0.0028
   6474.50    49.6451   -69.0564     8.4984    13.6410     4.6920     0.0743     2.3961   100.1786     3.6325    -0.0327
   6475.00    72.3943   -69.6237     8.5251     6.2781     2.7771     0.0897     2.3709    94.6425     3.7818     0.0106
   6475.50    69.0230   -73.3445     8.5639    12.0274     5.0831     0.1093     2.4262   100.1872     4.3798     0.0412
   6476.00    66.5942   -65.7244     8.5898    13.3389     5.2756     0.0398     2.3588   101.3600     3.6770    -0.0621
   6476.50    75.0858   -67.1285     8.7227    23.4488     8.4840     0.0973     2.3947    98.8281     3.8478     0.0281
   6477.00    55.3831   -65.5025     8.5008    17.4569     6.1462     0.0505     2.3662    98.0151     3.7509    -0.0005
   6477.50    77.0099   -70.4189     8.5809    12.0876     5.1159     0.1058     2.3730    95.3382     3.9913     0.0231
   6478.00    70.5448   -66.8001     8.7115    21.3978     9.7064     0.0684     2.3696    97.3459     3.9625     0.0004
   6478.50    61.2509   -72.0508     8.5858    15.6461     6.1013     0.0568     2.4047    96.4338     3.9572    -0.0229
   6479.00    72.2842   -59.5628     8.6613    15.7605     6.6770     0.0950     2.4106    99.6611     4.4281    -0.0445
   6479.50    54.4046   -73.9036     8.6009    10.8786     4.3186     0.0883     2.4004    95.3706     3.8206     0.0269
   6480.00    56.7143   -59.3232     8.6401    11.6110     4.7368     0.0610     2.3809    99.5892     4.0435     0.0267
   6480.50    58.4969   -69.6838     8.5911    12.2164     4.6945     0.0559     2.3889    95.3531     4.1352     0.0265
   6481.00    59.1889   -76.7441     8.6802    15.8885     6.3783     0.0772     2.4122    97.0577     3.8749     0.0171
   6481.50    55.0231   -63.0341     8.4585    16.0606    11.0197     0.0568     2.4137    99.6674     4.1718     0.0378
   6482.00    73.3148   -69.2528     8.5762    24.9673    10.6292     0.0596     2.3056    95.6823     3.9980     0.0562
   6482.50    61.5138   -65.6342     8.6417    17.6580     8.0362     0.0831     2.3787    99.7196     4.1563    -0.0751
   6483.00    66.4588   -63.7779     8.6650     6.9918     3.0528     0.0614     2.3807    99.4010     4.0633    -0.0937
   6483.50    59.1300   -68.2144     8.7604    17.0666     6.4771     0.0892     2.4081    96.9032     3.6782     0.0687
   6484.00    49.1818   -72.8722     8.5716    10.2231     5.2971     0.1105     2.3865   101.1752     4.3530    -0.0536
   6484.50    65.9606   -65.0390     8.7582    11.8364     4.4667     0.0777     2.4107    97.8969     4.5093    -0.0434
   6485.00    48.5555   -69.9201     8.5438    12.4116     6.1310     0.0832     2.3573   100.9439     4.0632    -0.0115
   6485.50    63.3576   -66.5006     8.7421    12.9953     4.8620     0.1209     2.3980   102.9909     3.9224    -0.0662
   6486.00    53.0131   -80.7043     8.6906    10.5102     3.4697     0.0568     2.4177    96.8599     4.4066    -0.0153
   6486.50    79.9106   -67.7063     8.5170    16.8987     7.2719     0.1043     2.3470    99.4918     4.4868    -0.0379
   6487.00    71.3558   -73.1394     8.6386    10.4254     3.3435     0.1019     2.4672    95.6172     4.0784    -0.0093
   6487.50    64.9632   -61.6850     8.6023    17.7392     7.8980     0.0975     2.4281    94.4043     4.0717     0.0112
   6488.00    74.2790   -66.8409     8.6695    31.2229     9.8358     0.1063     2.3929    96.8890     4.1028    -0.0137
   6488.50    57.4507   -68.7616     8.5841    10.7245     4.0247     0.0860     2.3686    93.3602     3.7872    -0.0158
   6489.00    68.6207   -67.5336     8.5753    14.6914     4.4133     0.0687     2.3887    94.6076     4.0672     0.0103
   6489.50    65.9228   -74.9614     8.7424     7.5146     5.2878     0.1022     2.3970    99.1670     4.4717     0.0418
   6490.00    66.4877   -61.8567     8.5952    14.6564     4.2114     0.1030     2.4083    95.8239     4.0983     0.0641
   6490.50    74.6054   -60.0197     8.6872    19.4771     7.8061     0.1024     2.4406    99.4684     3.9273    -0.0087
   6491.00    70.3373   -68.0153     8.5816    19.9629    10.0367     0.0812     2.3819    98.2069     4.2379     0.0730
   6491.50    66.8378   -62.0309     8.7703    16.4800     8.1103     0.0659     2.4136   102.8339     4.0084     0.0351
   6492.00    51.3393   -72.8315     8.5354    21.0514     9.9836     0.0841     2.3584    98.8250     4.1318    -0.0493
   6492.50    56.9482   -73.9738     8.5413    34.6484    13.0073     0.0991     2.3854   100.5661     3.8945    -0.0504
   6493.00    63.6968   -69.7859     8.7547    27.0143    14.1582     0.1007     2.4096    98.4004     3.9441    -0.0231
   6493.50    65.4752   -67.8179     8.5573    13.8344     6.6429     0.0716     2.4196    98.1001     4.3022     0.0578
   6494.00    55.7361   -71.9643     8.7614    10.4836     4.3753     0.0865     2.3768   100.6311     4.1810    -0.0201
   6494.50    84.1204   -67.3071     8.6900    14.3612     6.0276     0.0540     2.3867    99.1142     4.0058    -0.0757
   6495.00    77.0072   -68.4653     8.5849    12.2253     4.6017     0.0998     2.4443    97.7088     4.1881    -0.0092
   6495.50    69.7419   -74.9898     8.4186    18.6198     6.2090     0.0644     2.4358    97.6661     4.0459    -0.0792
   6496.00    65.5499   -67.4051     8.5975    11.4236     5.8522     0.0958     2.4078    98.6343     4.0137    -0.0422
   6496.50    63.3243   -65.6820     8.6091    15.9491     8.2942     0.0571     2.3350    94.9759     4.4064    -0.0235
   6497.00    57.4549   -69.1426     8.7152    20.9862     7.0340     0.1007     2.4779    94.8188     4.3333     0.0060
   6497.50    65.7380   -64.2367     8.7569    15.8545     6.1497     0.0865     2.4025   101.2065     4.1755     0.0410
   6498.00    67.2280   -76.0868     8.5290    12.3169     4.7874     0.0644     2.3943   102.4934     4.2117     0.0278
   6498.50    55.2794   -67.6596     8.6772    23.3011     9.2598     0.0939     2.3885    94.0833     4.1843    -0.0472
   6499.00    67.9342   -75.8500     8.6731     9.3330     3.7815     0.0682     2.4160    94.8326     4.2864    -0.0149
   6499.50    64.0659   -75.5681     8.7035    14.8812     7.1935     0.0950     2.4169   100.2367     4.0321     0.0031
   6500.00    50.0924   -73.1511     8.6455    16.2342     5.5923     0.0745     2.4343    98.3791     4.3676    -0.0105
