~VERSION INFORMATION
 VERS.                  2.0 : CWLS LOG ASCII STANDARD -VERSION 2.0
 WRAP.                   NO : ONE LINE PER DEPTH STEP
~WELL INFORMATION
 STRT.FT        5000.0000           :START DEPTH
 STOP.FT        6500.0000           :STOP DEPTH
 STEP.FT           0.5000           :STEP
 NULL.          -999.25             :NULL VALUE
 WELL.           MELANIE-1          :WELL NAME
 UWI.            42-123-45678       :UNIQUE WELL ID
 FLD.            SOUTH PARS         :FIELD NAME
 LOC.            OFFSHORE ABU DHABI :LOCATION
 CTRY.           UAE                :COUNTRY
 OPER.           ADNOC              :OPERATOR
 SRVC.           SCHLUMBERGER       :SERVICE COMPANY
 DATE.           2024-03-15         :LOG DATE
~CURVE INFORMATION
 DEPT.FT         00 001 00 0        :DEPTH
 GR   .GAPI      00 031 00 0        :GAMMA RAY
 SP   .MV        00 060 00 0        :SPONTANEOUS POTENTIAL
 CALI .IN        00 022 00 0        :CALIPER
 RT   .OHMM      00 060 00 0        :DEEP RESISTIVITY (AT90)
 RXO  .OHMM      00 060 00 0        :FLUSHED ZONE RESISTIVITY
 NPHI .V/V       00 042 00 0        :NEUTRON POROSITY (LIME)
 RHOB .G/C3      00 045 00 0        :BULK DENSITY
 DT   .US/F      00 046 00 0        :SONIC TRANSIT TIME
 PEF  .B/E       00 050 00 0        :PHOTOELECTRIC FACTOR
 DRHO .G/C3      00 045 00 0        :DENSITY CORRECTION
~PARAMETERS
 MUD .           WATER              :MUD TYPE
 BHT .F          180.0000           :BOTTOM HOLE TEMPERATURE
 FD  .G/C3       1.0000             :FLUID DENSITY
~ASCII DATA
# ...
   6373.50    38.2472   -62.6627     8.6726    12.5061     4.8573     0.1476     2.2468    96.9530     2.8053     0.0267
   6374.00    50.6358   -67.5131     8.7914    16.0769     6.4707     0.1237     2.1930    98.0906     3.0617     0.0086
   6374.50    45.9992   -62.9151     8.7570     7.8450     2.3223     0.0913     2.2865    97.4275     3.1385    -0.0224
   6375.00    61.7685   -68.9119     8.7644     9.6014     4.7067     0.0747     2.2626   102.1620     3.5174     0.0252
   6375.50    60.3985   -55.8489     8.6646     8.7001     3.9452     0.1125     2.2671    99.6432     3.3201     0.0008
   6376.00    44.1773   -69.6407     8.6362    15.1265     6.7636     0.1087     2.3114    98.8952     3.0498    -0.0179
   6376.50    46.7864   -63.8967     8.8284    10.7725     3.6624     0.0781     2.2742    96.0193     2.9585     0.0276
   6377.00    47.4908   -68.1858     8.6513    17.6309     6.0414     0.1072     2.2591    99.6686     3.3529     0.0260
   6377.50    44.5583   -60.1789     8.7301    11.9167     4.9847     0.0966     2.2897    98.1743     3.0508     0.0086
   6378.00    49.8208   -64.7444     8.7167    11.3497     3.9511     0.1080     2.3048   100.6132     3.2058     0.0687
   6378.50    42.2832   -65.7367     8.8461    10.8001     4.7126     0.1221     2.2824    96.4602     2.8934     0.0531
   6379.00    39.3934   -58.9332     8.7967    13.5599     3.5206     0.1373     2.2947   100.4286     3.2862     0.0401
   6379.50    53.5087   -63.1078     8.5697     6.3157     2.2916     0.1254     2.2702    98.5837     3.2751     0.1027
   6380.00    53.6518   -60.7272     8.5801    10.9414     6.2690     0.0926     2.2726    96.1582     2.9340    -0.0059
   6380.50    42.2695   -68.2723     8.7563    10.4702     4.5729     0.1142     2.2790    95.9295     3.3936    -0.0186
   6381.00    55.9552   -70.4448     8.6916    13.3266     5.5115     0.1078     2.2535    96.3855     3.3032     0.0344
   6381.50    43.8279   -62.9395     8.6522    10.1595     6.0446     0.0797     2.2596    99.3024     3.3452    -0.0101
   6382.00    50.9940   -65.1244     8.7989     7.8906     1.9782     0.1141     2.3185   100.2894     3.1264     0.0005
   6382.50    55.6194   -60.4524     8.7157    10.8272     3.6793     0.1431     2.3379   100.7406     3.2429    -0.0394
   6383.00    48.8756   -64.0383     8.7018     7.8269     2.8894     0.1064     2.3260   100.8584     3.2247     0.0243
   6383.50    52.8702   -62.6674     8.7742     6.0945     2.8944     0.0736     2.2390    97.6646     3.1874    -0.0588
   6384.00    45.1884   -71.8635     8.6583    13.5399     6.4526     0.1059     2.2366   103.1196     3.2560    -0.0039
   6384.50    47.8356   -54.3580     8.8523    12.9844     4.3678     0.0808     2.2440    98.6218     3.4782    -0.0006
   6385.00    47.8479   -64.6748     8.6162    12.5872     6.1471     0.1222     2.2843   101.3028     3.4468    -0.0174
   6385.50    43.6094   -60.4188     8.7604    16.2152     5.9834     0.1152     2.1965    99.4637     3.0004    -0.0703
   6386.00    48.2549   -68.1401     8.8377     9.0075     4.5910     0.1011     2.2637   101.0867     3.4388    -0.0706
   6386.50    37.3672   -62.4723     8.5562     7.1759     2.3348     0.0977     2.3241    99.3203     3.4849    -0.0298
   6387.00    45.9138   -70.5791     8.6592    10.8216     4.2232     0.0999     2.3118   101.1475     3.2213     0.0216
   6387.50    47.6508   -61.8569     8.8074     9.9820     3.6200     0.1041     2.2676    99.9476     3.3582     0.0116
   6388.00    47.9670   -65.9492     8.8085     8.6263     4.2620     0.0883     2.2704   102.4142     3.3602    -0.0007
   6388.50    48.1710   -64.0752     8.6752    10.8701     3.9164     0.0758     2.3010    97.5195     3.0963    -0.0354
   6389.00    49.6952   -60.7830     8.6185     9.2901     3.6846     0.1261     2.3125    94.6686     3.1949     0.0136
   6389.50    54.1111   -70.4870     8.7872     6.4499     2.8552     0.0954     2.2690    97.0607     3.4263    -0.0720
   6390.00    57.3579   -67.7980     8.8096     9.8253     4.3829     0.1063     2.2785   103.1899     3.1819    -0.0959
   6390.50    45.2496   -62.1400     8.5744     7.9951     3.8188     0.1084     2.2691    99.5217     3.4811    -0.0097
   6391.00    40.9080   -53.9863     8.5701    12.0813     5.0409     0.1090     2.2466   100.2636     3.5519    -0.0218
   6391.50    42.2830   -65.2184     8.7126     9.2791     3.4138     0.0789     2.2805    96.8284     3.5245     0.0405
   6392.00    46.8074   -61.6227     8.7526    15.8073     5.8958     0.0686     2.2787   100.1877     3.6967     0.0063
   6392.50    47.9751   -65.1634     8.6594    18.3667     7.3845     0.0902     2.2503    96.9242     3.2874     0.0660
   6393.00    44.7159   -54.9672     8.7568    13.9515     5.8662     0.1097     2.3081    97.3668     3.3459    -0.0219
   6393.50    40.5922   -73.4643     8.6175     7.1624     2.7819     0.0870     2.3037    98.7879     3.3795     0.0195
   6394.00    47.3973   -64.3046     8.4767    17.9589     7.2112     0.0943     2.3106   101.3318     3.3082    -0.0101
   6394.50    52.5826   -72.9547     8.6453    18.3864     5.4296     0.1437     2.2672   101.6530     3.4336     0.0553
   6395.00    55.9763   -77.4089     8.6937    11.5524     5.2808     0.0641     2.2313   101.7354     2.9878    -0.0082
   6395.50    46.8414   -63.4376     8.6594    17.1240     7.1023     0.0857     2.3053    95.2347     3.3759     0.0342
   6396.00    48.0813   -64.2761     8.5707     9.7810     4.7804     0.1386     2.2719    99.9794     3.0643    -0.0431
   6396.50    44.0562   -66.4462     8.5046     6.6088     2.6436     0.0995     2.2657    99.4094     3.1521    -0.0166
   6397.00    51.3026   -65.6012     8.6344     9.2306     2.6079     0.0861     2.2552    95.4034     3.4961    -0.0034
   6397.50    44.8508   -49.6267     8.7752    19.5255     7.2699     0.1234     2.2852   100.0479     3.3145     0.0505
   6398.00    56.3073   -66.4568     8.8106     7.4478     2.8623     0.1010     2.3413    99.2486     3.4987    -0.0879
   6398.50    37.5193   -62.6629     8.8034    11.6745     5.4178     0.0927     2.2794   101.5342     3.3199    -0.0133
   6399.00    49.0129   -68.5077     8.6026    11.8235     3.1260     0.1034     2.2624   100.2429     3.5902    -0.0147
   6399.50    54.3824   -63.8318     8.5684    10.0567     4.0560     0.0862     2.3151    98.3506     3.3260    -0.0831
   6400.00    53.5277   -66.5460     8.7331    10.2919     4.5622     0.0788     2.3013   102.7751     2.9876    -0.0186
   6400.50    73.6847   -67.4541     8.7465    12.0416     4.2198     0.0967     2.2331    93.3332     3.4285    -0.0616
   6401.00    55.0220   -56.3534     8.7226     9.9773     4.0509     0.0786     2.3171    99.8030     2.9545    -0.0932
   6401.50    44.2743   -59.6082     8.4808     7.7261     2.7262     0.0988     2.3616    94.7049     3.1026    -0.0105
   6402.00    51.6259   -64.8564     8.5951    12.6541     4.3744     0.1055     2.2202    97.2566     3.2213    -0.0118
   6402.50    38.2625   -77.1070     8.6785    16.4073     6.0481     0.1153     2.2617   101.5661     3.2012    -0.0098
   6403.00    51.9103   -67.4365     8.7298    15.4688     5.3677     0.1206     2.2139    96.1674     3.2985     0.0101
   6403.50    45.9732   -52.1617     8.7574     9.3676     4.2960     0.0898     2.2976    95.7170     3.2040    -0.0352
   6404.00    60.0431   -66.8752     8.6947     8.2238     2.8399     0.1077     2.3301   107.1320     3.1360     0.0716
   6404.50    48.4059   -60.2507     8.7129    11.0162     3.6784     0.1074     2.3041    95.9061     3.7303    -0.0013
   6405.00    51.9502   -58.6017     8.6879    19.2434    10.9623     0.1039     2.3433   104.9333     3.2911     0.0515
   6405.50    47.8818   -64.7611     8.7476    14.6247     7.0892     0.0876     2.3269    99.4626     2.9854    -0.0672
   6406.00    66.9589   -70.1092     8.7099    14.9157     4.1116     0.0765     2.3536    98.4021     3.3642    -0.0334
   6406.50    50.5598   -78.1207     8.6848    15.8057     5.4256     0.1069     2.3379   101.6742     3.2162     0.0275
