~VERSION INFORMATION
 VERS.                  2.0 : CWLS LOG ASCII STANDARD -VERSION 2.0
 WRAP.                   NO : ONE LINE PER DEPTH STEP
~WELL INFORMATION
 STRT.FT        5000.0000           :START DEPTH
 STOP.FT        6500.0000           :STOP DEPTH
 STEP.FT           0.5000           :STEP
 NULL.          -999.25             :NULL VALUE
 WELL.           MELANIE-1          :WELL NAME
 UWI.            42-123-45678       :UNIQUE WELL ID
 FLD.            SOUTH PARS         :FIELD NAME
 LOC.            OFFSHORE ABU DHABI :LOCATION
 CTRY.           UAE                :COUNTRY
 OPER.           ADNOC              :OPERATOR
 SRVC.           SCHLUMBERGER       :SERVICE COMPANY
 DATE.           2024-03-15         :LOG DATE
~CURVE INFORMATION
 DEPT.FT         00 001 00 0        :DEPTH
 GR   .GAPI      00 031 00 0        :GAMMA RAY
 SP   .MV        00 060 00 0        :SPONTANEOUS POTENTIAL
 CALI .IN        00 022 00 0        :CALIPER
 RT   .OHMM      00 060 00 0        :DEEP RESISTIVITY (AT90)
 RXO  .OHMM      00 060 00 0        :FLUSHED ZONE RESISTIVITY
 NPHI .V/V       00 042 00 0        :NEUTRON POROSITY (LIME)
 RHOB .G/C3      00 045 00 0        :BULK DENSITY
 DT   .US/F      00 046 00 0        :SONIC TRANSIT TIME
 PEF  .B/E       00 050 00 0        :PHOTOELECTRIC FACTOR
 DRHO .G/C3      00 045 00 0        :DENSITY CORRECTION
~PARAMETERS
 MUD .           WATER              :MUD TYPE
 BHT .F          180.0000           :BOTTOM HOLE TEMPERATURE
 FD  .G/C3       1.0000             :FLUID DENSITY
~ASCII DATA
   5000.00    28.6796   -48.6643     8.1603    10.4381     4.1885     0.2402     2.1022    91.2858     2.6257     0.0141
   5000.50    23.6990   -46.5236     8.1994    17.8542     7.4042     0.2816     2.1243    93.1668     2.6651    -0.0105
   5001.00    30.0857   -35.1104     8.2325    13.2342     5.9811     0.2473     2.1407   100.2362     2.4329    -0.0195
   5001.50    37.1877   -41.8592     8.3373    17.6261     7.0007     0.2310     2.1946    94.8585     2.5423     0.0336
   5002.00    23.2294   -51.4123     8.2212    25.1487     9.3456     0.2463     2.1805    93.7072     2.5221    -0.0060
   5002.50    23.3288   -42.3977     8.0945    20.5527     7.5775     0.2491     2.2020    91.4398     2.2953    -0.0280
   5003.00    37.9349   -52.6572     8.3668    26.4831     9.3738     0.2865     2.2028    95.8222     2.5253    -0.0154
   5003.50    31.5400   -39.6000     8.1688    20.8060     9.7421     0.2736     2.1371    97.4371     2.7052     0.0308
   5004.00    21.7441   -47.4617     8.2463    12.7285     4.4739     0.2778     2.1474    97.0073     2.3862    -0.0644
   5004.50    29.9398   -45.6668     8.2966     8.8261     4.1820     0.2709     2.1406    93.6466     2.4789    -0.0142
   5005.00    21.9913   -38.6621     8.2716    19.6728     7.8991     0.2731     2.1327    95.5460     2.4850     0.0428
   5005.50    22.0723   -51.8192     8.3608    17.6553     6.3630     0.2402     2.0975    99.5164     2.3821    -0.0067
   5006.00    27.8333   -52.4613     8.2990    14.0517     6.3607     0.2496     2.1522    97.7531     2.5698     0.0109
   5006.50    10.6908   -48.4858     8.1647    11.3164     3.9137     0.2335     2.1140    92.2269     2.2938     0.0435
   5007.00    12.2972   -40.4680     8.4684    15.1293     6.8756     0.2488     2.1515    86.9802     2.6917     0.0357
   5007.50    21.6978   -53.3486     8.2697    17.8020     7.4303     0.2664     2.2159    95.5472     2.5458    -0.0176
   5008.00    18.1930   -60.0045     8.2352    23.0583     8.1864     0.2551     2.1370    97.0912     2.2286    -0.0052
   5008.50    28.9092   -48.1913     8.3461    19.9944     8.8897     0.2784     2.1581    91.4662     2.7509     0.0362
   5009.00    19.2307   -43.2685     8.2744    30.6269    13.6659     0.2290     2.1793    94.7458     2.4404     0.0376
   5009.50    15.2960   -40.1175     8.2891    13.8651     6.9907     0.2615     2.1605    94.0193     2.2576    -0.0035
   5010.00    38.4193   -48.5260     8.4981    24.6545    11.9640     0.2263     2.1608    95.1613     2.6185    -0.0021
   5010.50    24.9876   -48.3587     8.2211    19.2098     8.4772     0.2528     2.1410    93.2523     2.4919     0.0107
   5011.00    27.4337   -40.6234     8.2165    23.3411     7.4514     0.2654     2.1449    98.7957     2.0340     0.0547
   5011.50    15.5952   -55.8327     8.2597    16.6338    10.8576     0.2460     2.1230    95.4058     2.2787     0.0427
   5012.00    22.7379   -48.5177     8.3549    26.1664     7.9047     0.2610     2.1771    92.3624     2.4351     0.0277
   5012.50    28.0800   -45.7139     8.0968    20.7410    10.0309     0.2305     2.0994    97.7893     1.9429    -0.0431
   5013.00    18.0845   -44.5108     8.0507    15.4913     6.7548     0.2161     2.1807    91.2816     2.3872    -0.0110
   5013.50    30.3978   -49.3967     8.1882    18.9362     5.9892     0.2602     2.1094    98.9649     2.3973    -0.0089
   5014.00    22.6869   -46.7661     8.0833    17.6967     6.9049     0.2837     2.1803    98.1216     2.1245     0.0567
   5014.50    25.2583   -59.4705     8.2039    22.0334     8.6756     0.2286     2.1407    99.3547     2.4108    -0.0096
   5015.00    22.8780   -50.4105     8.2964    13.3622     6.9397     0.2726     2.1143    94.7475     2.3536     0.0501
   5015.50    42.6097   -44.9421     8.1568    18.8802     6.5480     0.2488     2.1686    93.7705     2.1094    -0.0228
   5016.00    27.7834   -52.2113     8.1029    21.4572     8.1448     0.2209     2.1790    95.5475     2.5270    -0.0196
   5016.50    19.5295   -47.0950     8.2523    19.2579     4.8279     0.2246     2.1380    95.0786     2.5062     0.0193
   5017.00    34.6714   -45.2456     8.3314    28.5781    16.1724     0.2473     2.1727    93.4100     2.2762     0.0627
   5017.50    18.4242   -49.2826     8.0753    24.0782     7.7751     0.2386     2.0824    93.7435     2.2900    -0.0085
   5018.00    29.9618   -46.8073     8.3266    19.0562     8.1375     0.2201     2.1113    94.3413     2.4705    -0.1025
   5018.50    12.7134   -52.5629     8.3260    20.3928     7.9933     0.2122     2.1897    91.9663     2.2806    -0.0626
   5019.00    17.8652   -48.8719     8.3395    20.8928     8.1949     0.2288     2.1441    97.5460     1.9301     0.0119
   5019.50    30.1655   -44.8772     8.3656    21.5898    10.1544     0.2493     2.0949    95.3909     2.4092    -0.0590
   5020.00    34.5983   -47.2328     8.4637    11.0680     6.1843     0.2450     2.1298    94.6582     2.1448    -0.0346
   5020.50    30.1615   -51.0395     8.2077    17.4934     7.3583     0.2348     2.1230    92.2877     2.2250     0.0005
   5021.00    27.9653   -47.0749     8.2540    12.2738     5.5968     0.2485     2.1457    92.1729     2.5901    -0.0980
   5021.50    26.5816   -44.7119     8.2011    28.1289    12.0165     0.2650     2.1395   101.4969     2.2673    -0.0152
   5022.00    17.2623   -58.6235     8.2427    18.8322     9.2330     0.2518     2.1559    93.8424     2.2901    -0.0466
   5022.50    23.4317   -42.6672     8.3955    18.1076     6.6026     0.2411     2.1484    97.5907     2.3873    -0.0600
   5023.00    25.6053   -50.2325     8.1075    25.1254    12.4618     0.2618     2.1913    96.2817     2.3820    -0.0321
   5023.50    37.8474   -46.5123     8.1556    21.8028    10.8900     0.2237     2.1632    87.5029     2.0927    -0.0428
   5024.00    32.2393   -42.7420     8.3792    13.6980     6.8037     0.2381     2.1641   101.2403     2.2601     0.0188
   5024.50    15.4860   -55.6749     8.3432    18.8227     6.5979     0.2383     2.1853    97.9496     2.2750     0.0479
   5025.00    32.2830   -52.4519     8.2047    17.3967     6.7283     0.2173     2.1387    93.6286     2.3179    -0.0146
   5025.50    26.7097   -50.4355     8.3262    11.4039     4.7854     0.2333     2.1124    95.8806     2.3169    -0.0238
   5026.00    24.4750   -52.9995     8.2746    15.6539     4.7601     0.1999     2.1865    92.5521     2.7722    -0.0166
   5026.50    34.8838   -40.4939     8.3902    18.2329    10.0334     0.2793     2.1543   101.5122     2.0152    -0.0443
   5027.00    38.3383   -53.5401     8.2474    18.6209     7.4301     0.2220     2.1544    93.3443     2.4421    -0.0515
   5027.50    37.6406   -52.1216     8.3423    12.3614     5.2334     0.2722     2.1312    94.5316     2.4784    -0.0658
   5028.00    23.5766   -48.4094     8.5037    27.2545     9.7136     0.2409     2.1317    93.9456     2.3360    -0.0532
   5028.50    27.9166   -55.5294     8.2990    18.7193     5.7425     0.2511     2.1755    96.4087     2.1031     0.0653
   5029.00    33.1404   -51.5843     8.2439    19.5294     6.9228     0.2297     2.1797   100.3117     2.5618    -0.0276
   5029.50    38.3947   -48.1057     8.3110    21.7870     9.1053     0.2433     2.1736   101.6020     1.7862    -0.1177
   5030.00    26.8569   -51.4443     8.2020    15.2588     6.9835     0.2519     2.1739    95.0698     2.0837    -0.0235
   5030.50    29.3050   -50.3338     8.4770    22.1745     9.1615     0.2518     2.1671    97.4343     2.4504    -0.0636
   5031.00    22.0396   -52.6002     8.2560    17.3288     7.4292     0.2537     2.1540    96.5779     2.1378     0.0024
   5031.50    21.4206   -57.6125     8.2105    14.7902     5.5305     0.2306     2.1448    93.4199     2.5268    -0.0019
   5032.00    37.5904   -48.5187     8.1539    22.9984    10.1592     0.2280     2.1863   103.6648     1.9009     0.0022
   5032.50    42.0401   -41.4383     8.3470    30.3058    16.3073     0.2054     2.1388   100.5176     1.9766    -0.0016
   5033.00    30.7140   -50.2072     8.3237    24.0883    11.0939     0.2474     2.1611    97.0288     2.0885    -0.0149
