~VERSION INFORMATION
 VERS.                  2.0 : CWLS LOG ASCII STANDARD -VERSION 2.0
 WRAP.                   NO : ONE LINE PER DEPTH STEP
~WELL INFORMATION
 STRT.FT        5000.0000           :START DEPTH
 STOP.FT        6500.0000           :STOP DEPTH
 STEP.FT           0.5000           :STEP
 NULL.          -999.25             :NULL VALUE
 WELL.           MELANIE-1          :WELL NAME
 UWI.            42-123-45678       :UNIQUE WELL ID
 FLD.            SOUTH PARS         :FIELD NAME
 LOC.            OFFSHORE ABU DHABI :LOCATION
 CTRY.           UAE                :COUNTRY
 OPER.           ADNOC              :OPERATOR
 SRVC.           SCHLUMBERGER       :SERVICE COMPANY
 DATE.           2024-03-15         :LOG DATE
~CURVE INFORMATION
 DEPT.FT         00 001 00 0        :DEPTH
 GR   .GAPI      00 031 00 0        :GAMMA RAY
 SP   .MV        00 060 00 0        :SPONTANEOUS POTENTIAL
 CALI .IN        00 022 00 0        :CALIPER
 RT   .OHMM      00 060 00 0        :DEEP RESISTIVITY (AT90)
 RXO  .OHMM      00 060 00 0        :FLUSHED ZONE RESISTIVITY
 NPHI .V/V       00 042 00 0        :NEUTRON POROSITY (LIME)
 RHOB .G/C3      00 045 00 0        :BULK DENSITY
 DT   .US/F      00 046 00 0        :SONIC TRANSIT TIME
 PEF  .B/E       00 050 00 0        :PHOTOELECTRIC FACTOR
 DRHO .G/C3      00 045 00 0        :DENSITY CORRECTION
~PARAMETERS
 MUD .           WATER              :MUD TYPE
 BHT .F          180.0000           :BOTTOM HOLE TEMPERATURE
 FD  .G/C3       1.0000             :FLUID DENSITY
~ASCII DATA
# ...
   5201.00    60.6733   -69.7085     8.2526    32.5017    15.4428     0.1307     2.1818    97.5356     1.6968     0.0172
   5201.50    61.0714   -67.0540     8.3342    13.1930     4.4675     0.1270     2.2323   101.9062     1.6399     0.0127
   5202.00    57.1591   -81.9144     8.1923    16.6183     5.6234     0.1501     2.2625    99.1799     1.3601    -0.0357
   5202.50    65.8062   -65.8620     8.2312    16.7945     4.6250     0.1293     2.2482   103.7170     1.0745     0.0302
   5203.00    52.3461   -68.6603     8.1569    28.3325    15.5755     0.1445     2.2636    95.6730     1.4774     0.0215
   5203.50    59.8115   -70.4222     8.2189    18.6562     6.4615     0.1202     2.1901    95.5237     1.0938     0.0071
   5204.00    61.9761   -59.0939     8.2446    14.3514     6.0241     0.1326     2.2191    96.0415     1.3156    -0.0173
   5204.50    65.1923   -72.7210     8.1909    22.2655    10.0496     0.1123     2.2042    99.1389     1.3396    -0.0163
   5205.00    66.8326   -71.3796     8.0204    16.6668     9.0209     0.1524     2.2839   103.3438     1.4015    -0.0081
   5205.50    52.2052   -59.4240     8.2339    13.0250     5.0521     0.1112     2.2521   103.4788     1.6800    -0.0493
   5206.00    48.9919   -73.5595     8.2373    14.3785     5.1632     0.1211     2.3187    91.7497     1.7242    -0.0016
   5206.50    71.5485   -72.1669     8.1329    31.5997    13.0851     0.1210     2.2197    99.4086     1.6192     0.0357
   5207.00    64.0477   -70.1684     8.0725    21.0640    10.8927     0.1200     2.2125    89.0003     1.6447     0.0351
   5207.50    55.4632   -65.2462     8.3485    19.3753     7.4908     0.1412     2.2304   101.0039     1.6502    -0.0152
   5208.00    73.9220   -68.4273     8.2501    17.3929     5.7477     0.1202     2.2765   101.9527     1.0204     0.0426
   5208.50    62.4996   -75.9456     8.1781    20.4510     6.0110     0.1541     2.2246    98.4568     1.5226     0.0762
   5209.00    71.0699   -72.1592     8.0874    20.3649     6.3806     0.1096     2.2398    98.8086     1.1621    -0.0126
   5209.50    62.2368   -72.5508     8.1189    20.4247     9.7117     0.1291     2.2394    98.7566     1.6241     0.0277
   5210.00    78.2435   -69.9156     8.3314    19.3539     7.2607     0.1100     2.2381    96.1612     1.1045    -0.0905
   5210.50    75.8609   -67.4154     8.2150    24.2502     8.5903     0.1336     2.2178    99.7883     1.4879    -0.0503
   5211.00    59.8870   -67.4685     8.1462    18.8038     6.5181     0.1246     2.2338    97.7775     1.6345     0.0036
   5211.50    69.7116   -78.4543     8.2523    13.9166     5.6621     0.1216     2.2329   101.2410     1.3023    -0.0403
   5212.00    67.1621   -64.2689     8.1199    15.5191     5.9174     0.1482     2.2386    98.0875     1.7191     0.0816
   5212.50    73.0081   -68.3400     8.3515    10.2926     3.8982     0.1111     2.2676    95.8235     1.6290     0.0239
   5213.00    54.3993   -62.6941     8.3367    34.2096    17.9229     0.1356     2.2925    93.7769     1.6048     0.0386
   5213.50    67.6666   -67.4095     8.1548    24.1096    13.1172     0.1083     2.2150    92.7701     1.6692    -0.0012
   5214.00    70.7049   -64.1373     8.1387    14.4991     4.2030     0.1257     2.2289   102.2775     1.4588    -0.0401
   5214.50    48.2267   -67.3243     7.9398    17.0793     7.2943     0.0992     2.2164    96.9442     1.5620    -0.0208
   5215.00    52.8895   -62.9389     8.0535    15.3432     5.2541     0.1096     2.2472    99.3107     1.5347     0.0102
   5215.50    46.1004   -67.0715     8.0677    29.4830    11.2219     0.1210     2.2259   103.6219     1.5312    -0.0255
   5216.00    60.3175   -70.1847     8.2153    12.1144     5.1549     0.1587     2.2497    96.5609     1.4004     0.0268
   5216.50    68.2713   -58.3452     8.1692    19.1826     7.3534     0.1241     2.2761    96.3438     1.2874     0.0285
   5217.00    74.6079   -65.2741     8.0673    17.9287     7.5098     0.1550     2.1677    97.8065     1.4696     0.0002
   5217.50    63.2397   -66.8623     8.1738    23.7198    10.8549     0.1260     2.2587    98.2680     1.4597    -0.0730
   5218.00    75.7336   -76.1240     8.2525    17.9277     7.6063     0.1136     2.2306   103.8189     1.3919     0.0686
   5218.50    51.7213   -76.1952     8.2548    10.9067     3.8333     0.1519     2.2587   102.8300     1.7108    -0.0085
   5219.00    49.1923   -68.3010     8.0121    17.1293     6.0416     0.1296     2.2185    99.9714     1.3071     0.1084
   5219.50    62.4321   -69.0477     8.1893    13.7875     4.1352     0.1078     2.2817   102.4331     1.5084     0.0261
   5220.00    66.0058   -72.8564     8.0639    18.8887     6.3693     0.1298     2.2737    97.5262     1.7772    -0.0084
   5220.50    62.7284   -69.0911     8.2924    28.3385    16.7826     0.1143     2.2638    98.9341     1.7269     0.0179
   5221.00    46.5069   -61.8628     8.2807    10.9289     3.7312     0.0801     2.2710    97.1077     1.7896    -0.0808
   5221.50    62.3897   -66.3387     8.1126    14.4753     4.5607     0.1383     2.2254    94.1167     1.4294     0.0410
   5222.00    52.7229   -75.5302     8.1258    15.5797     6.6437     0.1413     2.2296   101.5748     1.7057     0.1027
   5222.50    68.5719   -70.3919     8.1564    16.3880     6.4121     0.1559     2.2713    99.5334     1.3375    -0.0836
   5223.00    66.2029   -73.8682     7.9773    22.9275     8.8192     0.1273     2.2261    97.9676     1.4962    -0.0115
   5223.50    55.8065   -71.7905     8.2362    17.4178     9.2351     0.1137     2.2930    97.8810     1.5163    -0.0042
   5224.00    59.2698   -71.9286     8.1754    20.7708     9.2728     0.1351     2.2404    93.3445     1.4388     0.0350
   5224.50    54.9620   -72.2570     8.2998    15.1853     5.4632     0.1351     2.2657    94.9054     1.4830     0.0842
   5225.00    62.9891   -76.1524     8.0930    19.6147     7.2073     0.1507     2.3141    98.8208     1.4580     0.0153
   5225.50    71.1862   -70.5227     8.1410    23.1012     8.3568     0.1168     2.2304    96.1993     1.3616     0.0857
   5226.00    55.7137   -72.6949     8.0523    14.6742     6.9919     0.1141     2.2541    97.1077     1.7307     0.0068
   5226.50    67.6860   -84.5464     8.1026    23.0906     8.6842     0.1029     2.2842    97.4210     1.5244     0.0181
   5227.00    59.4655   -59.6412     8.0849    18.5406     5.1812     0.1277     2.2816    95.6615     1.6026     0.0131
   5227.50    57.4183   -64.4690     8.3028    24.9561     9.8864     0.0857     2.2437    94.7789     1.5965     0.0488
   5228.00    62.9586   -71.8008     8.1334    17.1548     5.0459     0.1320     2.2385    92.8192     1.5761    -0.0169
   5228.50    55.5862   -69.8314     8.2158    20.4156    12.6398     0.1280     2.2475    97.1903     1.5852     0.0327
   5229.00    59.4920   -75.7898     8.1653    17.9746     5.9271     0.1277     2.2984    99.4590     1.5070    -0.0492
   5229.50    54.3911   -61.4586     8.0766    17.6634     6.8403     0.1185     2.2471    92.6455     1.8533    -0.0114
   5230.00    79.7446   -60.4562     8.1867    19.6337     8.2697     0.1462     2.2583    97.4774     1.7233    -0.0255
   5230.50    64.3614   -69.1644     8.2636    21.3236     8.0510     0.1327     2.2436    98.3659     1.5763     0.0035
   5231.00    58.5337   -64.8352     8.0830    12.4673     4.7059     0.1029     2.2781    94.5265     1.4848    -0.0126
   5231.50    65.8954   -69.0812     8.2847    27.8621    12.1259     0.1030     2.2621   101.7343     1.5520     0.0453
   5232.00    63.3368   -76.6457     8.1189    10.3654     5.6262     0.0970     2.2278    96.2833     1.6608    -0.0351
   5232.50    62.5192   -72.0254     8.1557    14.7335     6.8712     0.1254     2.2293    97.1090     1.8789    -0.0693
   5233.00    69.2517   -69.3107     8.2571    17.5750     9.4488     0.0941     2.1989    96.9012     1.3059    -0.0543
   5233.50    70.4496   -72.2468     8.1378    20.4432     6.6328     0.1355     2.2345    92.0448     1.7141     0.0398
   5234.00    60.1965   -71.0708     8.2080    28.9617    12.3438     0.1401     2.2837   100.3554     1.8091    -0.0388
