~VERSION INFORMATION
 VERS.                  2.0 : CWLS LOG ASCII STANDARD -VERSION 2.0
 WRAP.                   NO : ONE LINE PER DEPTH STEP
~WELL INFORMATION
 STRT.FT        5000.0000           :START DEPTH
 STOP.FT        6500.0000           :STOP DEPTH
 STEP.FT           0.5000           :STEP
 NULL.          -999.25             :NULL VALUE
 WELL.           MELANIE-1          :WELL NAME
 UWI.            42-123-45678       :UNIQUE WELL ID
 FLD.            SOUTH PARS         :FIELD NAME
 LOC.            OFFSHORE ABU DHABI :LOCATION
 CTRY.           UAE                :COUNTRY
 OPER.           ADNOC              :OPERATOR
 SRVC.           SCHLUMBERGER       :SERVICE COMPANY
 DATE.           2024-03-15         :LOG DATE
~CURVE INFORMATION
 DEPT.FT         00 001 00 0        :DEPTH
 GR   .GAPI      00 031 00 0        :GAMMA RAY
 SP   .MV        00 060 00 0        :SPONTANEOUS POTENTIAL
 CALI .IN        00 022 00 0        :CALIPER
 RT   .OHMM      00 060 00 0        :DEEP RESISTIVITY (AT90)
 RXO  .OHMM      00 060 00 0        :FLUSHED ZONE RESISTIVITY
 NPHI .V/V       00 042 00 0        :NEUTRON POROSITY (LIME)
 RHOB .G/C3      00 045 00 0        :BULK DENSITY
 DT   .US/F      00 046 00 0        :SONIC TRANSIT TIME
 PEF  .B/E       00 050 00 0        :PHOTOELECTRIC FACTOR
 DRHO .G/C3      00 045 00 0        :DENSITY CORRECTION
~PARAMETERS
 MUD .           WATER              :MUD TYPE
 BHT .F          180.0000           :BOTTOM HOLE TEMPERATURE
 FD  .G/C3       1.0000             :FLUID DENSITY
~ASCII DATA
# ...
   6273.00    16.9429   -45.0204     8.7212     4.2226     1.4342     0.1442     2.1962    95.4964     1.8264     0.0073
   6273.50    23.5455   -49.9151     8.7333     8.1277     3.3437     0.1552     2.1898    94.7025     2.1872     0.0248
   6274.00    36.3347   -40.9049     8.6314     5.4027     3.0055     0.1984     2.1777    93.7424     2.0414     0.0186
   6274.50    44.9710   -52.4988     8.6898     7.8567     3.7332     0.1417     2.1833    93.3376     2.0029    -0.0516
   6275.00    15.6755   -45.6916     8.8165     7.7179     2.7891     0.1759     2.1687    95.4456     2.3472    -0.0509
   6275.50    13.4239   -48.6774     8.7643     6.2132     1.9007     0.1717     2.1951    94.8257     2.1373    -0.0844
   6276.00    43.5310   -44.7104     8.8576     6.3262     1.8076     0.1630     2.1793    94.3624     2.2834     0.0307
   6276.50    31.7801   -48.3110     8.7812     6.1312     3.1909     0.1736     2.1917    91.6774     2.2942    -0.0158
   6277.00    21.8168   -55.3370     8.7276     2.9355     0.9700     0.1397     2.2166    90.7547     2.4511     0.0328
   6277.50    33.1401   -47.7937     8.9774     5.5341     2.0741     0.1957     2.1657    94.7788     1.9597     0.0161
   6278.00    10.0000   -43.0163     8.7530     3.7999     1.9797     0.2007     2.2052    94.4733     2.3894    -0.0401
   6278.50    29.0900   -48.4956     8.8784     5.5594     1.6103     0.1628     2.1886    95.1235     2.2131    -0.0048
   6279.00    31.7856   -44.5627     8.7218     3.7268     2.0092     0.2101     2.2485    95.4237     2.1384    -0.0182
   6279.50    36.6571   -53.7546     8.8326     3.6591     1.3913     0.1533     2.1817    94.2168     1.9885    -0.0244
   6280.00    21.2518   -48.7468     8.8542     8.4017     2.6709     0.1690     2.2094    95.1818     2.3439     0.0366
   6280.50    30.1485   -51.8265     8.7820     7.1134     2.7080     0.1893     2.1893    93.2929     2.0424     0.1004
   6281.00    22.1596   -45.0574     8.5254     5.1247     1.7741     0.1511     2.1476   100.4598     2.3347     0.0446
   6281.50    31.7060   -48.7231     8.7625     5.3919     2.3555     0.1324     2.1739    93.5230     2.6210    -0.0011
   6282.00    22.6002   -45.5183     8.8834     4.7076     1.6541     0.1275     2.2163    94.8434     2.4358     0.0504
   6282.50    26.5981   -43.6181     8.8129     5.9810     1.6323     0.2006     2.1772    93.8190     2.5224     0.0685
   6283.00    21.9964   -45.6864     8.8045     4.0912     1.5659     0.1485     2.1239    93.8025     2.1046    -0.0557
   6283.50    35.2720   -47.8666     8.5874     6.7621     2.0621     0.1550     2.1899    96.1319     2.4053     0.0490
   6284.00    37.0305   -54.3109     8.6874     4.6797     1.9500     0.1362     2.1584    95.7849     2.0282     0.0308
   6284.50    28.3860   -49.4213     8.8003     4.4778     1.4126     0.1771     2.1955    94.7467     2.2147     0.0475
   6285.00    30.6688   -52.1602     8.7999     5.1423     1.8656     0.1422     2.2384    95.3080     2.6140     0.0325
   6285.50    18.8742   -51.3023     8.8801     4.3038     1.7855     0.1477     2.2153    94.0323     2.1486    -0.0091
   6286.00    28.1655   -51.5418     8.7439     5.7045     2.1869     0.1632     2.2387    97.4300     2.4968     0.0813
   6286.50    30.2613   -54.6558     8.7987     4.4248     1.8608     0.1356     2.1761   102.4233     2.4820     0.0136
   6287.00    51.7292   -59.6297     8.7595     6.0180     2.7580     0.1530     2.1890    93.6660     2.4982    -0.0174
   6287.50    21.9671   -53.2705     8.6589     7.5740     2.4033     0.1843     2.1623    97.5052     2.0343     0.0202
   6288.00    42.6763   -49.0495     8.5318     4.2623     1.6831     0.1645     2.1734    96.4907     2.3971     0.0389
   6288.50    39.0377   -56.8438     8.8002     5.1145     1.0512     0.1583     2.1665    98.3941     2.2652     0.0038
   6289.00    33.4079   -50.1109     8.7742     6.1428     2.5817     0.1596     2.1555    98.5109     2.5186     0.0157
   6289.50    45.3317   -40.7743     8.6948     4.7196     1.7776     0.1472     2.2360    97.0689     1.9743     0.0035
   6290.00    34.3395   -45.2465     8.5944     6.2173     2.0429     0.1946     2.1326    96.3653     2.3833    -0.0264
   6290.50    34.5759   -42.2301     8.8190     6.4249     2.7375     0.1382     2.2368    95.2133     2.3595    -0.0329
   6291.00    31.1376   -48.5780     8.7292     7.5688     3.8278     0.1583     2.2334    94.2535     1.9206    -0.0561
   6291.50    41.4510   -44.7818     8.8112     4.5847     1.6674     0.1561     2.2114    96.2895     2.1460     0.0607
   6292.00    40.5341   -54.3248     8.9417     4.1667     1.3797     0.1737     2.1633    92.7577     1.9616    -0.0089
   6292.50    26.8568   -54.0122     8.5409     5.0688     2.0955     0.1752     2.1497    94.8613     2.1868    -0.1371
   6293.00    21.4082   -64.5716     8.6848     4.1805     1.2802     0.1522     2.1810    99.9946     2.4464     0.0159
   6293.50    30.4382   -45.0304     8.7336     6.6555     2.3328     0.1584     2.2166    97.0007     2.3801     0.0150
   6294.00    25.7616   -43.3446     8.8997     3.9864     2.0362     0.1588     2.1983    99.4141     2.3794    -0.0747
   6294.50    31.7535   -53.8971     8.5903    11.4343     4.6310     0.1065     2.1673   101.1758     2.1421    -0.0333
   6295.00    42.2611   -52.4858     8.9473     8.4212     2.3131     0.1199     2.2334    96.2665     2.5786    -0.0351
   6295.50    28.8030   -55.0701     8.7670     5.7603     1.6085     0.1392     2.2498    97.4501     2.3553    -0.0297
   6296.00    32.2186   -49.4721     8.7436     7.4830     3.0918     0.1398     2.1929    95.9530     2.3703     0.0485
   6296.50    33.1252   -45.8451     8.7331     3.5486     1.6867     0.1268     2.2033    94.4509     2.5562    -0.0060
   6297.00    39.5482   -60.2679     8.7090    12.4257     3.5965     0.1654     2.1551    94.0600     2.1744    -0.0171
   6297.50    14.8854   -49.5911     8.8572     4.9077     2.1478     0.1502     2.1883    99.4783     2.4229     0.0449
   6298.00    28.1066   -53.1056     8.6452     5.6793     2.9642     0.1455     2.2165    97.6046     2.4664     0.0198
   6298.50    34.7502   -51.2392     8.7864     3.3915     1.9789     0.1244     2.2122   102.5482     2.2772    -0.0696
   6299.00    42.7603   -49.5950     8.7131     6.8825     2.9416     0.1483     2.1867    99.9542     2.5213    -0.0247
   6299.50    29.3241   -52.9146     8.6751     4.2897     1.8989     0.0964     2.1940    94.8738     2.4909     0.0129
   6300.00    18.3466   -52.5750     9.0096     6.1942     1.6172     0.1454     2.1892    99.6178     2.3798    -0.0374
   6300.50    38.4163   -53.2098     8.7926     5.1284     3.1220     0.1496     2.1947    96.2107     2.3782     0.0812
   6301.00    28.4753   -47.3721     8.8118     4.3916     1.5657     0.1529     2.2161   100.8055     2.5139     0.0045
   6301.50    24.1405   -50.2129     8.8639     4.7905     1.5899     0.1164     2.1447    95.7248     2.5715    -0.0301
   6302.00    28.7626   -51.2867     8.6078     6.5573     2.4924     0.1519     2.2019    94.0553     2.4310    -0.0449
   6302.50    32.3807   -58.8272     8.9248     4.1923     2.2689     0.1263     2.2150    94.8539     2.6471     0.0371
   6303.00    29.1185   -54.4480     8.4984     4.9427     3.0748     0.1306     2.1878    95.0357     2.5593    -0.0259
   6303.50    16.4114   -48.1443     8.6722     7.5864     3.1116     0.1609     2.1909    94.7772     2.0746     0.0152
   6304.00    41.3320   -52.5315     8.7029    13.6388     6.6608     0.1865     2.1922    95.6084     2.1559    -0.0461
   6304.50    44.4539   -49.5046     8.8067     7.2443     2.9229     0.1470     2.1917    99.9243     2.6780     0.0028
   6305.00    39.5665   -44.0518     8.7701     4.7899     1.5569     0.1293     2.2066   102.7703     2.3968    -0.0254
   6305.50    25.3522   -47.7732     8.7313     5.6762     3.0506     0.1491     2.2107    93.4194     2.4837    -0.0126
   6306.00    32.9411   -52.5823     8.7465     6.4276     2.2702     0.1638     2.1442   101.2281     2.6833    -0.0319
