~VERSION INFORMATION
 VERS.                  2.0 : CWLS LOG ASCII STANDARD -VERSION 2.0
 WRAP.                   NO : ONE LINE PER DEPTH STEP
~WELL INFORMATION
 STRT.FT        5000.0000           :START DEPTH
 STOP.FT        6500.0000           :STOP DEPTH
 STEP.FT           0.5000           :STEP
 NULL.          -999.25             :NULL VALUE
 WELL.           MELANIE-1          :WELL NAME
 UWI.            42-123-45678       :UNIQUE WELL ID
 FLD.            SOUTH PARS         :FIELD NAME
 LOC.            OFFSHORE ABU DHABI :LOCATION
 CTRY.           UAE                :COUNTRY
 OPER.           ADNOC              :OPERATOR
 SRVC.           SCHLUMBERGER       :SERVICE COMPANY
 DATE.           2024-03-15         :LOG DATE
~CURVE INFORMATION
 DEPT.FT         00 001 00 0        :DEPTH
 GR   .GAPI      00 031 00 0        :GAMMA RAY
 SP   .MV        00 060 00 0        :SPONTANEOUS POTENTIAL
 CALI .IN        00 022 00 0        :CALIPER
 RT   .OHMM      00 060 00 0        :DEEP RESISTIVITY (AT90)
 RXO  .OHMM      00 060 00 0        :FLUSHED ZONE RESISTIVITY
 NPHI .V/V       00 042 00 0        :NEUTRON POROSITY (LIME)
 RHOB .G/C3      00 045 00 0        :BULK DENSITY
 DT   .US/F      00 046 00 0        :SONIC TRANSIT TIME
 PEF  .B/E       00 050 00 0        :PHOTOELECTRIC FACTOR
 DRHO .G/C3      00 045 00 0        :DENSITY CORRECTION
~PARAMETERS
 MUD .           WATER              :MUD TYPE
 BHT .F          180.0000           :BOTTOM HOLE TEMPERATURE
 FD  .G/C3       1.0000             :FLUID DENSITY
~ASCII DATA
# ...
   5871.00    10.0000    12.0719     8.7365    19.5224     4.8538     0.3471     2.3131    51.7876     3.2484    -0.0032
   5871.50    10.0000    18.0186     8.6173    18.8978     8.6955     0.3094     2.3778    52.2371     3.1630    -0.0153
   5872.00    10.0000     8.5701     8.8406    15.0483     9.3843     0.3129     2.3868    59.2458     3.0615    -0.0471
   5872.50    10.0000    10.6872     8.7284    11.3069     5.1058     0.3565     2.3558    52.6825     3.2800     0.0348
   5873.00    10.0000     4.5615     8.7724    19.0275     7.3083     0.3351     2.3634    55.5670     3.1329     0.0234
   5873.50    10.0000     5.6487     8.8390    22.0133     8.7094     0.3001     2.3961    55.4908     2.8749    -0.0534
   5874.00    10.0000    10.4767     8.7023    27.7705    10.2112     0.3002     2.3395    49.8252     2.8043    -0.0037
   5874.50    10.0000    15.5047     8.7322    10.1721     4.1428     0.3318     2.3421    47.8605     3.3174    -0.0227
   5875.00    10.0000     8.7008     8.7819    14.2501     5.6580     0.2926     2.3447    55.8911     2.9105    -0.0641
   5875.50    10.0000     8.7995     8.6288    16.7796     5.6727     0.3347     2.3940    50.2092     3.2055    -0.0566
   5876.00    10.0000     7.9413     8.7071    19.9540    11.1754     0.3197     2.3972    48.4991     3.1556    -0.0506
   5876.50    10.0000     7.2983     8.7146    19.1260     5.6821     0.3235     2.3160    56.6020     3.0660    -0.0023
   5877.00    10.0000    11.4431     8.6068    19.2620     8.8952     0.3081     2.3875    50.4973     3.5260    -0.0183
   5877.50    10.0000     2.4778     8.9345    22.5819     8.8518     0.3008     2.3814    51.2703     3.1656    -0.0384
   5878.00    10.0000    16.3644     8.5624    15.2382     8.9145     0.3427     2.4028    59.5432     3.2758    -0.0157
   5878.50    10.0000     6.6280     8.5737    26.4462    11.3248     0.3087     2.3672    48.6734     3.1767     0.0299
   5879.00    10.0000    13.5598     8.8353    22.7594     8.4715     0.3055     2.3538    49.9163     3.0684     0.0143
   5879.50    10.0000     3.5952     8.7755    18.1570     6.9118     0.3122     2.3889    52.3388     3.1059     0.0401
   5880.00    10.0000    13.2840     8.6020    32.3090    13.0271     0.3178     2.3750    53.0300     3.3965    -0.0091
   5880.50    10.0000    13.2939     8.7657    31.8825    10.1473     0.2934     2.4208    51.1025     3.3174     0.0641
   5881.00    10.0000    11.8493     8.8521    26.4448     9.0738     0.3028     2.3817    50.3409     3.4852     0.0139
   5881.50    10.0000     4.9501     8.7027     8.0823     2.2623     0.3019     2.3570    58.3801     3.1341    -0.0196
   5882.00    10.0000    11.1636     8.9659    32.1041    10.6771     0.3312     2.3166    54.6725     2.9094     0.0037
   5882.50    10.0000     3.9940     8.5340    25.3753    10.3426     0.2967     2.3338    55.6726     2.9917    -0.0499
   5883.00    11.0111     8.6386     8.7762    36.5002    15.5035     0.2794     2.3076    53.5390     2.8373    -0.0122
   5883.50    10.0000    15.0424     8.8238    28.9821     7.8031     0.2753     2.3437    54.8529     3.2232     0.0172
   5884.00    10.0000    13.8715     8.7966    32.1041    12.4940     0.2853     2.3773    56.8171     2.9477     0.0245
   5884.50    10.0000     9.9563     8.6874    26.0265    11.6523     0.3420     2.3489    51.0636     2.4488    -0.0164
   5885.00    10.0000     4.9985     8.6792    29.9689    11.6033     0.3152     2.3791    54.8812     3.5476     0.1094
   5885.50    10.0000    13.0923     8.7530    36.3728    12.8170     0.3250     2.3580    56.2091     2.9357    -0.0069
   5886.00    10.0000     9.9529     8.7905    21.3399     7.8605     0.3258     2.3353    58.7898     2.9295    -0.0671
   5886.50    10.0000    -1.7542     8.7695    12.4780     4.4796     0.3163     2.3494    60.0336     3.3742     0.0485
   5887.00    10.0000    13.7517     8.8137    18.2364     6.4224     0.3138     2.3604    54.4343     2.7932     0.0243
   5887.50    10.0000     9.7083     8.6081    22.4808     9.3104     0.3363     2.3499    57.6754     3.2572     0.0093
   5888.00    10.0000    15.8324     8.6876    20.4537    12.9800     0.3184     2.3496    46.2840     2.9074    -0.0186
   5888.50    10.0000     4.3342     8.6167    13.7596     4.7432     0.3435     2.3215    58.9864     2.7551     0.0157
   5889.00    10.0000    -6.0828     8.6725    12.2607     4.6019     0.3281     2.3310    52.1871     3.3560     0.0648
   5889.50    10.0000    11.1860     8.8130    16.0126     6.3392     0.3034     2.4112    53.6768     3.1945     0.0081
   5890.00    10.0000    11.2381     8.7226    25.4840     8.8843     0.3059     2.3798    55.7589     3.1889    -0.0588
   5890.50    10.0000     1.3163     8.9728    32.1314    16.0096     0.3014     2.2981    54.0109     3.0734    -0.1381
   5891.00    10.0000     4.8663     8.7318    26.3298     6.5550     0.3404     2.2708    55.0963     3.1147     0.0154
   5891.50    10.0000    23.5238     8.7188    27.4661     9.8794     0.3080     2.3435    59.3059     2.7434    -0.0394
   5892.00    10.0000     8.2083     8.7238    19.5207     9.1967     0.3002     2.3675    53.4261     3.0072    -0.0040
   5892.50    10.0000    13.3796     8.6498    11.8590     4.4726     0.3226     2.3245    51.3541     2.7941    -0.0324
   5893.00    10.0000     6.4597     8.7081    17.4463     5.9220     0.3144     2.3702    60.0915     2.6971    -0.0352
   5893.50    10.0000    -0.7506     8.8270    18.5051     8.0842     0.3223     2.3408    56.2678     3.0521    -0.0306
   5894.00    10.0000     8.8373     8.7260    17.2281     8.2608     0.3543     2.3336    60.4907     3.1965    -0.0270
   5894.50    10.0000     8.3480     8.6356    20.3289     8.4814     0.3348     2.3606    57.3515     2.8832     0.0310
   5895.00    10.0000     7.6638     8.6228    22.8291     7.7796     0.3172     2.3214    50.8266     2.9125     0.0229
   5895.50    10.0000     9.0769     8.6706    25.8287    11.3185     0.2886     2.3282    56.7704     2.7222    -0.0483
   5896.00    10.0000    10.9581     8.7234    18.3956     6.7897     0.3068     2.3563    51.9194     2.9463    -0.0429
   5896.50    10.0000     8.8726     8.8357    11.2953     5.2443     0.3311     2.3347    54.9307     3.0919     0.0152
   5897.00    10.0000     3.2893     8.5826    17.2984     9.3089     0.2935     2.3924    54.7185     3.0932     0.0421
   5897.50    10.0000    12.0262     8.6851    20.2580     4.8122     0.3599     2.3554    50.1301     3.0389     0.0415
   5898.00    10.0000    -0.1659     8.7318    28.8536    11.8007     0.3174     2.3529    52.5821     2.8012    -0.0401
   5898.50    10.0000    -0.6854     8.5344    16.8610     4.7663     0.3182     2.3320    61.6737     2.7899     0.0396
   5899.00    10.0000    13.2475     8.6347    23.3141    15.1974     0.3039     2.3592    55.8111     3.0740    -0.0711
   5899.50    10.0000    12.0717     8.6504    21.8079     7.9435     0.3273     2.3227    54.6070     3.0723    -0.0081
   5900.00    10.0000     9.2343     8.6392    20.2541     9.4060     0.2942     2.3403    60.6105     2.8705     0.0195
   5900.50    10.0000     2.5285     8.7383    26.4245    10.4954     0.3608     2.3038    54.0212     2.8147    -0.0832
   5901.00    10.0000     5.9504     8.7034    16.3924     5.5840     0.3439     2.3619    54.9739     3.1284     0.0837
   5901.50    10.0000     8.1601     8.6642    16.8180     5.5943     0.3373     2.3389    58.2590     2.8180     0.0531
   5902.00    10.0000     1.4781     8.7629    19.9129    10.9377     0.2899     2.3891    54.1229     3.0342     0.0259
   5902.50    10.0000     5.7459     8.8928    16.4911     7.9862     0.3218     2.4008    53.1241     2.8526    -0.0386
   5903.00    10.0000    12.6859     8.8847    23.2707    13.7305     0.3420     2.3514    48.6412     2.6655    -0.0027
   5903.50    10.0000    16.5438     8.5289    16.1312     6.5245     0.3297     2.3300    52.6318     3.1925     0.0316
   5904.00    10.0000     7.2928     8.7792    21.3815     9.0596     0.2979     2.2990    52.6422     2.8891    -0.0449
