~VERSION INFORMATION
 VERS.                  2.0 : CWLS LOG ASCII STANDARD -VERSION 2.0
 WRAP.                   NO : ONE LINE PER DEPTH STEP
~WELL INFORMATION
 STRT.FT        5000.0000           :START DEPTH
 STOP.FT        6500.0000           :STOP DEPTH
 STEP.FT           0.5000           :STEP
 NULL.          -999.25             :NULL VALUE
 WELL.           MELANIE-1          :WELL NAME
 UWI.            42-123-45678       :UNIQUE WELL ID
 FLD.            SOUTH PARS         :FIELD NAME
 LOC.            OFFSHORE ABU DHABI :LOCATION
 CTRY.           UAE                :COUNTRY
 OPER.           ADNOC              :OPERATOR
 SRVC.           SCHLUMBERGER       :SERVICE COMPANY
 DATE.           2024-03-15         :LOG DATE
~CURVE INFORMATION
 DEPT.FT         00 001 00 0        :DEPTH
 GR   .GAPI      00 031 00 0        :GAMMA RAY
 SP   .MV        00 060 00 0        :SPONTANEOUS POTENTIAL
 CALI .IN        00 022 00 0        :CALIPER
 RT   .OHMM      00 060 00 0        :DEEP RESISTIVITY (AT90)
 RXO  .OHMM      00 060 00 0        :FLUSHED ZONE RESISTIVITY
 NPHI .V/V       00 042 00 0        :NEUTRON POROSITY (LIME)
 RHOB .G/C3      00 045 00 0        :BULK DENSITY
 DT   .US/F      00 046 00 0        :SONIC TRANSIT TIME
 PEF  .B/E       00 050 00 0        :PHOTOELECTRIC FACTOR
 DRHO .G/C3      00 045 00 0        :DENSITY CORRECTION
~PARAMETERS
 MUD .           WATER              :MUD TYPE
 BHT .F          180.0000           :BOTTOM HOLE TEMPERATURE
 FD  .G/C3       1.0000             :FLUID DENSITY
~ASCII DATA
# ...
   5703.50    32.3796    -0.2306     8.6664    16.0104     6.9629     0.2740     2.5272    56.7662     4.7431     0.0134
   5704.00    17.6905     1.5193     8.6541    16.8948     7.5699     0.1972     2.4921    46.9196     4.5830     0.0040
   5704.50    18.1683    -6.1299     8.5592    11.6313     5.6763     0.2411     2.5261    52.5266     4.4044    -0.1000
   5705.00    30.7036    -3.0203     8.5272    13.7065     5.3449     0.2170     2.4955    52.4001     4.6700    -0.0351
   5705.50    24.4310    -7.9341     8.5904    16.0949     7.8265     0.1952     2.5004    54.7136     4.0990     0.0008
   5706.00    23.5315   -15.0594     8.7798    15.1846     4.0402     0.2296     2.5290    55.3954     4.2638     0.0079
   5706.50    37.1077    -1.4941     8.3751    23.6098     7.6454     0.2048     2.4824    50.7996     4.3615    -0.0486
   5707.00    14.5429     0.6207     8.6301    17.2257     7.1198     0.2310     2.4783    52.7838     4.8574    -0.0292
   5707.50    27.0172    -1.0411     8.4612    20.8822     8.9221     0.2353     2.5234    56.4683     4.1945     0.0221
   5708.00    19.9540   -12.0271     8.5509    16.2238     5.4078     0.2573     2.5148    50.9593     4.0654    -0.0553
   5708.50    21.5502    -3.9615     8.5286    22.2376     9.3687     0.2051     2.5204    47.9368     4.1163     0.0053
   5709.00    31.5328   -13.2272     8.5110    18.2723     6.4516     0.2537     2.5248    49.9641     4.5846     0.0495
   5709.50    23.2714     4.7847     8.5533    16.3035     6.1700     0.2378     2.5164    47.1852     4.2828     0.0154
   5710.00    23.4189    -7.4226     8.4414    16.1932     7.9506     0.2568     2.5326    52.1963     4.3680     0.0134
   5710.50    27.5963     4.3560     8.6582    12.2247     5.8647     0.2279     2.5170    54.2562     4.5506    -0.0808
   5711.00    16.0005     2.8795     8.3764    18.9742     6.2176     0.2102     2.4535    50.6817     4.3646    -0.0329
   5711.50    12.1104    -6.2819     8.6103    16.1215     5.2196     0.2128     2.4610    46.1641     4.4352     0.0822
   5712.00    10.3697    -7.3721     8.5241    14.0528     5.1774     0.2116     2.5709    54.0743     4.4995    -0.0240
   5712.50    10.0000     0.1143     8.4402    22.7954     9.0695     0.2473     2.5128    45.6630     4.3045     0.0506
   5713.00    34.9860    -5.7887     8.5780    11.2543     3.9467     0.2676     2.5409    46.3366     4.3555    -0.0244
   5713.50    10.0000    -0.9845     8.4026    14.4437     7.1142     0.2271     2.5017    50.4223     4.4352    -0.0111
   5714.00    16.5749    -3.8409     8.5627    22.3429     9.5802     0.2513     2.5100    51.6956     4.5586     0.0206
   5714.50    16.0348   -10.2627     8.4170    18.0661     7.8378     0.2086     2.4979    52.1901     4.2245     0.0040
   5715.00    20.6130   -12.4395     8.6059    16.2193     5.0359     0.2430     2.5851    50.7082     3.7770     0.0153
   5715.50    24.5842    -0.0842     8.4678    17.7615     8.9728     0.2530     2.5184    56.1701     4.5150    -0.0327
   5716.00    24.8466    -3.9561     8.5156    17.4045     3.9606     0.2110     2.4944    51.0690     4.5627    -0.0455
   5716.50    13.2029    -3.8446     8.5906    10.4758     4.9510     0.2362     2.4606    53.9612     4.4152    -0.0354
   5717.00    16.4353     2.4692     8.4844    14.8865     7.1780     0.2549     2.5690    53.2020     4.4268    -0.0213
   5717.50    19.9377     4.9259     8.5564    26.8791     9.8609     0.1822     2.5046    46.9465     4.2583    -0.0092
   5718.00    15.5925    -2.2354     8.4113    13.5956     7.0149     0.2679     2.5315    50.3000     4.4691     0.0415
   5718.50    30.3458    -2.5073     8.6262    15.0775     5.9554     0.2486     2.5345    57.1635     4.5377     0.0035
   5719.00    21.3198     1.7647     8.7401    14.1167     5.7176     0.2562     2.4946    49.2649     4.3763     0.0194
   5719.50    23.1762    -7.4526     8.8434    16.1979     6.9344     0.2339     2.5283    48.7387     4.8611     0.0057
   5720.00    22.5055     0.5157     8.5737    13.9738    10.5720     0.2080     2.4896    51.2591     4.0480    -0.0446
   5720.50    26.4955     2.2271     8.6439    19.2841    10.0933     0.2535     2.4777    49.3267     4.3913     0.0007
   5721.00    18.4612     2.9364     8.3875    17.7003     8.1459     0.2415     2.5420    48.3362     4.1217     0.0052
   5721.50    10.0000   -10.0812     8.7164    21.0643     7.0197     0.2441     2.5020    49.2527     4.5304     0.0304
   5722.00    20.0216    -4.1370     8.6442    12.1990     5.0218     0.2655     2.5220    54.9839     4.0360    -0.0427
   5722.50    11.5188    -4.6546     8.5187    15.1144     5.1384     0.2593     2.5184    50.2636     4.0833    -0.0816
   5723.00    12.4065     0.3029     8.6913    15.6606     7.3837     0.2828     2.5248    46.6749     4.2213     0.0071
   5723.50    21.2321     2.2738     8.5426    19.2338     7.9127     0.2477     2.4587    46.1097     4.3989     0.0142
   5724.00    26.3533     7.4201     8.5227    13.2383     4.2288     0.2311     2.4874    57.2513     4.2244    -0.0072
   5724.50    16.5232    -2.4721     8.6165    22.1288     8.9963     0.2415     2.4949    49.9470     4.2242     0.0011
   5725.00    18.7297    -2.4191     8.4632    24.0276     8.1095     0.2539     2.4794    51.9070     4.3028     0.0352
   5725.50    29.7829     5.8830     8.6721    12.5248     5.1638     0.2662     2.5168    48.2756     4.2883    -0.0184
   5726.00    17.9974     1.6832     8.4649    14.5589     4.9042     0.2169     2.5392    51.5392     4.6320    -0.0111
   5726.50    36.7912     6.6040     8.4659    14.3963     5.7903     0.2467     2.5436    54.9410     4.4694     0.0032
   5727.00    20.4082     1.7747     8.4805    37.2386    17.3077     0.2790     2.4927    48.5931     4.2650    -0.0488
   5727.50    10.0000    -5.3894     8.6479    14.8758     5.8875     0.2423     2.5113    51.9127     4.7470    -0.0061
   5728.00    21.7239    -6.2046     8.5107    28.0242    10.3667     0.2660     2.5155    46.3069     4.4236    -0.0025
   5728.50    18.6531    -7.2318     8.4381    11.5983     4.8318     0.2576     2.5204    56.5801     4.1291     0.0655
   5729.00    25.8286     3.9006     8.5128    12.6167     5.8018     0.2672     2.4751    51.3046     4.3718    -0.0119
   5729.50    20.8028     6.5977     8.5707    13.8322     4.4339     0.2321     2.5557    49.2483     4.4252     0.0080
   5730.00    14.2167     9.9656     8.4563    13.2015     5.5632     0.2325     2.5285    49.5808     4.1782     0.0367
   5730.50    10.0000     4.9983     8.4597    15.7166     8.1820     0.2494     2.5289    48.9323     4.1028    -0.0335
   5731.00    13.4663     6.6607     8.7864    13.7840     6.1839     0.2186     2.5361    49.0738     4.3282     0.0550
   5731.50    10.0000    -1.9900     8.4897    13.3482     5.4013     0.2442     2.5156    43.0963     4.2364     0.0706
   5732.00    10.3088    -4.8086     8.5440    24.1859    10.9948     0.2549     2.4684    50.1333     4.6018    -0.0012
   5732.50    19.5690     5.2870     8.5400    24.6901    10.8115     0.2859     2.4947    49.9961     4.4518    -0.0216
   5733.00    28.1271     3.1880     8.5351    22.7619    10.5859     0.2585     2.4490    51.8705     4.1729     0.0651
   5733.50    17.8328     1.6996     8.6399    20.0560     5.3519     0.2633     2.5106    48.8239     4.3838     0.0318
   5734.00    10.0000     3.1619     8.6730    17.6402     5.1717     0.2744     2.4927    48.0693     4.5495     0.0033
   5734.50    18.0477     2.9034     8.5481    14.7947     7.2351     0.2321     2.4962    50.3483     4.0148     0.0571
   5735.00    23.9718     7.7687     8.4555    12.9158     3.8233     0.2484     2.5331    45.5238     4.0864     0.0528
   5735.50    10.0000     7.8866     8.7071    19.1885     8.3172     0.3005     2.4829    50.7807     4.2862    -0.0135
   5736.00    13.1426     4.1946     8.5706    12.1137     4.5160     0.2507     2.4887    44.7546     4.2930     0.0099
   5736.50    14.2404     5.7641     8.7537    12.7976     4.1943     0.2749     2.4965    53.6923     4.2729     0.0231
