~VERSION INFORMATION
 VERS.                  2.0 : CWLS LOG ASCII STANDARD -VERSION 2.0
 WRAP.                   NO : ONE LINE PER DEPTH STEP
~WELL INFORMATION
 STRT.FT        5000.0000           :START DEPTH
 STOP.FT        6500.0000           :STOP DEPTH
 STEP.FT           0.5000           :STEP
 NULL.          -999.25             :NULL VALUE
 WELL.           MELANIE-1          :WELL NAME
 UWI.            42-123-45678       :UNIQUE WELL ID
 FLD.            SOUTH PARS         :FIELD NAME
 LOC.            OFFSHORE ABU DHABI :LOCATION
 CTRY.           UAE                :COUNTRY
 OPER.           ADNOC              :OPERATOR
 SRVC.           SCHLUMBERGER       :SERVICE COMPANY
 DATE.           2024-03-15         :LOG DATE
~CURVE INFORMATION
 DEPT.FT         00 001 00 0        :DEPTH
 GR   .GAPI      00 031 00 0        :GAMMA RAY
 SP   .MV        00 060 00 0        :SPONTANEOUS POTENTIAL
 CALI .IN        00 022 00 0        :CALIPER
 RT   .OHMM      00 060 00 0        :DEEP RESISTIVITY (AT90)
 RXO  .OHMM      00 060 00 0        :FLUSHED ZONE RESISTIVITY
 NPHI .V/V       00 042 00 0        :NEUTRON POROSITY (LIME)
 RHOB .G/C3      00 045 00 0        :BULK DENSITY
 DT   .US/F      00 046 00 0        :SONIC TRANSIT TIME
 PEF  .B/E       00 050 00 0        :PHOTOELECTRIC FACTOR
 DRHO .G/C3      00 045 00 0        :DENSITY CORRECTION
~PARAMETERS
 MUD .           WATER              :MUD TYPE
 BHT .F          180.0000           :BOTTOM HOLE TEMPERATURE
 FD  .G/C3       1.0000             :FLUID DENSITY
~ASCII DATA
# ...
   5100.50    48.9419   -59.4555     8.3982    14.2868     6.6513     0.2024     2.1722   102.1712     1.6720     0.0154
   5101.00    53.2132   -54.2370     8.0951    11.9915     5.6661     0.2013     2.1553    94.2290     1.5545    -0.0362
   5101.50    53.0723   -65.4571     8.3694    27.4240    12.3378     0.2459     2.2076    96.3075     1.5567     0.0673
   5102.00    33.7136   -64.1446     8.1711    11.5051     5.9666     0.1901     2.0890    94.6651     1.8574    -0.0066
   5102.50    37.3253   -64.6867     8.2238    21.5392     6.9316     0.2100     2.1973   100.1666     1.3622     0.0032
   5103.00    49.0410   -56.7361     8.2044    26.0933     7.9106     0.1815     2.1877   100.1151     1.6954    -0.0163
   5103.50    49.1237   -56.4485     8.1447    12.9403     5.1696     0.2064     2.1779   105.3180     1.6443     0.0480
   5104.00    49.2264   -58.7576     8.3089    15.1567     3.9350     0.2091     2.0643   102.3216     1.8263     0.0080
   5104.50    76.0205   -55.1593     8.2230    28.7801    14.7246     0.1972     2.2031   103.9164     1.4189     0.0304
   5105.00    49.8582   -67.0299     8.1626    23.4671    11.9826     0.2230     2.1340   100.4684     1.7039     0.0142
   5105.50    54.4679   -52.8662     8.0797    16.6190     6.0957     0.1716     2.1498    96.6828     1.7675    -0.0088
   5106.00    53.1077   -53.6486     8.1206    28.6858    10.6542     0.1792     2.1601   100.0088     1.3155     0.0372
   5106.50    50.7790   -57.6490     8.0457    28.7225    11.3240     0.1929     2.1776   101.4125     1.4791     0.0138
   5107.00    43.1378   -52.4802     8.2110    21.6808     8.7630     0.2059     2.1848   101.7572     1.6732    -0.0384
   5107.50    51.8236   -69.7342     8.0899    15.2663     6.2638     0.1915     2.1926    98.2389     1.7919    -0.0396
   5108.00    39.6612   -64.1350     8.1829    17.6661     7.9011     0.2133     2.1905   101.1328     1.7231     0.0060
   5108.50    44.0410   -65.2507     8.3464    21.7928     8.4213     0.1740     2.1739    96.8775     1.7963     0.0363
   5109.00    42.1443   -58.0281     8.3292    18.8981     9.1286     0.1641     2.1790    96.5566     1.4660     0.0656
   5109.50    46.7738   -66.9473     8.2059    26.5042    11.5907     0.1928     2.1340    96.3489     1.3617    -0.0711
   5110.00    64.7275   -57.9700     8.2003    12.6373     4.4771     0.1847     2.1444    99.7798     1.6940     0.0010
   5110.50    31.3635   -54.9655     8.3969    12.7723     6.6726     0.1968     2.1940    96.1819     1.4289     0.0196
   5111.00    51.8830   -58.4027     8.2608    21.1108     6.4356     0.1851     2.1925    98.4505     1.4994     0.0118
   5111.50    33.5823   -60.5203     8.1758    17.2536     6.7754     0.1785     2.1893   102.4426     1.8566     0.0404
   5112.00    42.7996   -66.9385     8.0659    16.5656     8.0400     0.1835     2.1524    96.6555     1.7056     0.0262
   5112.50    55.3777   -66.2933     8.2478    11.7633     4.0718     0.1852     2.1954    98.2388     1.5519    -0.0394
   5113.00    47.2712   -55.8706     8.2912    20.1101     8.5578     0.1782     2.1335    99.9754     1.5236    -0.0406
   5113.50    38.2257   -58.2815     8.1450    19.6776     8.7746     0.1799     2.2009   100.5097     1.7852     0.0125
   5114.00    41.2159   -62.4326     8.2372    24.3200     8.1899     0.1756     2.1609    98.2796     1.7011     0.0396
   5114.50    52.4656   -64.3862     8.1716    20.4069     8.0453     0.2004     2.2195   102.1463     1.4136     0.0057
   5115.00    41.2763   -72.4846     8.1894    19.2087     7.4467     0.1869     2.1236   101.5651     1.2647    -0.0631
   5115.50    48.9413   -67.7685     7.9589    28.4510    10.1914     0.2278     2.2224   103.2213     2.0284    -0.0419
   5116.00    47.6644   -52.9156     8.1854    13.4809     8.5448     0.1855     2.1589    99.5647     1.4054     0.0277
   5116.50    42.1771   -68.9333     8.3044    23.4734     8.0603     0.1710     2.1586    98.2786     1.7533    -0.0139
   5117.00    64.6315   -61.6417     8.1442    12.1040     5.9194     0.2351     2.1761    97.7767     1.9477     0.0047
   5117.50    52.6412   -57.6098     8.2125    15.5382     5.7457     0.1896     2.1495   100.7530     1.6729     0.0426
   5118.00    31.4585   -68.9793     8.1316    13.8867     4.4697     0.2008     2.1685    98.7076     1.5212    -0.0481
   5118.50    49.2409   -61.8386     8.2431    25.2603    10.3141     0.1925     2.1488    98.1385     1.3540    -0.0166
   5119.00    42.5445   -58.1298     8.1853    19.5886     8.9216     0.1928     2.1502    98.5080     1.3491    -0.0209
   5119.50    54.7478   -62.8140     8.1129    19.8943     9.5663     0.1907     2.1861    97.8085     1.7103     0.0142
   5120.00    41.6775   -48.5913     8.3400    14.3303     7.8345     0.1576     2.1446   100.4632     1.9231     0.0309
   5120.50    47.1890   -71.3330     8.2995    18.2543    13.1597     0.1867     2.1489    95.6348     1.5518    -0.0592
   5121.00    52.2359   -57.7528     8.1460    15.8818     6.6791     0.1525     2.1310   100.7878     1.5177    -0.0002
   5121.50    55.2110   -63.9667     8.2562    22.4020     7.8479     0.1752     2.1573   101.9144     1.7663     0.0348
   5122.00    38.7715   -59.2991     8.2600    14.8305     6.4946     0.1639     2.2121    98.1481     1.4876    -0.0742
   5122.50    45.7866   -61.0080     8.2704    29.7506    11.2832     0.1852     2.1476   105.6626     1.6777    -0.0026
   5123.00    44.7517   -66.9359     8.0367    12.0749     5.8126     0.1844     2.1513    99.9549     1.6292    -0.0486
   5123.50    43.4132   -62.1806     8.3067    15.6699     4.8357     0.1870     2.1793    95.2235     1.5370    -0.0257
   5124.00    62.8519   -72.6703     8.1489    33.0078    21.2025     0.1828     2.1626    99.0691     1.6139    -0.1002
   5124.50    52.0564   -60.4195     8.1700    17.5127     8.3132     0.1646     2.2409   100.1059     1.9677     0.0557
   5125.00    38.8176   -61.9997     8.4695    13.4488     3.8412     0.1712     2.1694   101.2698     1.7340    -0.0142
   5125.50    56.3357   -60.3518     8.2358    21.3052     7.3954     0.1945     2.1846    99.1555     1.8297    -0.0323
   5126.00    66.0580   -58.3089     8.1669    17.2962     8.1451     0.1971     2.2031    96.8977     1.4256     0.0131
   5126.50    57.4283   -61.8155     7.9849    15.5214     7.8554     0.1525     2.2028    96.6520     1.8267    -0.0417
   5127.00    37.1013   -62.9671     8.3443    14.3549     4.4520     0.1445     2.1824    97.9805     1.7334    -0.0455
   5127.50    45.4700   -68.1666     8.0707    45.7517    21.1057     0.1602     2.1708    98.2722     1.3039     0.0604
   5128.00    59.5666   -67.3759     8.1048    18.4879     5.0096     0.1954     2.2366    96.5446     1.7099     0.0723
   5128.50    43.8573   -57.9345     8.1719    11.1872     4.3956     0.1984     2.1732    97.7550     1.4975    -0.0237
   5129.00    53.1564   -56.7396     8.3466    31.1998    15.5884     0.1553     2.1632   101.9356     1.2892     0.0427
   5129.50    55.8901   -65.1647     8.2822    23.9382     8.5753     0.1796     2.1573   104.9060     1.6226     0.0142
   5130.00    42.3645   -63.7968     8.1890    15.8325     4.6851     0.2098     2.1252   102.2306     1.7027    -0.0566
   5130.50    49.3906   -68.6023     8.2355    15.0581     6.2020     0.1811     2.2019   103.8850     1.6234    -0.0371
   5131.00    24.0234   -58.2677     8.1446    24.3795     8.6409     0.2009     2.1071   102.8929     1.5696     0.0620
   5131.50    41.8451   -60.8565     8.2185    18.4944     8.3904     0.1922     2.1777   102.4729     1.5236    -0.0571
   5132.00    48.1061   -54.5293     8.2118    11.1740     3.7443     0.1536     2.1720    98.9629     2.0813     0.0912
   5132.50    40.2307   -68.6786     8.3012    34.0350    11.6648     0.1677     2.2456   100.4017     1.3498    -0.0229
   5133.00    63.3585   -66.2284     8.3010    17.4765     4.6663     0.1719     2.1237    98.7196     1.7592     0.0632
   5133.50    38.9442   -63.2323     8.2536    31.1730    12.9003     0.1730     2.1520    99.3264     1.5861    -0.0122
