~VERSION INFORMATION
 VERS.                  2.0 : CWLS LOG ASCII STANDARD -VERSION 2.0
 WRAP.                   NO : ONE LINE PER DEPTH STEP
~WELL INFORMATION
 STRT.FT        5000.0000           :START DEPTH
 STOP.FT        6500.0000           :STOP DEPTH
 STEP.FT           0.5000           :STEP
 NULL.          -999.25             :NULL VALUE
 WELL.           MELANIE-1          :WELL NAME
 UWI.            42-123-45678       :UNIQUE WELL ID
 FLD.            SOUTH PARS         :FIELD NAME
 LOC.            OFFSHORE ABU DHABI :LOCATION
 CTRY.           UAE                :COUNTRY
 OPER.           ADNOC              :OPERATOR
 SRVC.           SCHLUMBERGER       :SERVICE COMPANY
 DATE.           2024-03-15         :LOG DATE
~CURVE INFORMATION
 DEPT.FT         00 001 00 0        :DEPTH
 GR   .GAPI      00 031 00 0        :GAMMA RAY
 SP   .MV        00 060 00 0        :SPONTANEOUS POTENTIAL
 CALI .IN        00 022 00 0        :CALIPER
 RT   .OHMM      00 060 00 0        :DEEP RESISTIVITY (AT90)
 RXO  .OHMM      00 060 00 0        :FLUSHED ZONE RESISTIVITY
 NPHI .V/V       00 042 00 0        :NEUTRON POROSITY (LIME)
 RHOB .G/C3      00 045 00 0        :BULK DENSITY
 DT   .US/F      00 046 00 0        :SONIC TRANSIT TIME
 PEF  .B/E       00 050 00 0        :PHOTOELECTRIC FACTOR
 DRHO .G/C3      00 045 00 0        :DENSITY CORRECTION
~PARAMETERS
 MUD .           WATER              :MUD TYPE
 BHT .F          180.0000           :BOTTOM HOLE TEMPERATURE
 FD  .G/C3       1.0000             :FLUID DENSITY
~ASCII DATA
# ...
   5971.50    10.0000    13.6041     8.6669    15.8384     7.2803     0.3068     2.2630    61.3166     2.2320     0.0116
   5972.00    10.0000    10.0146     8.8734    24.3710    16.8491     0.3189     2.2172    58.7895     1.8535    -0.0477
   5972.50    10.0000     1.0661     8.8421    15.3065     6.8602     0.3444     2.2646    64.0790     1.9590    -0.0328
   5973.00    10.0000    -1.9577     8.8594    37.5001    13.2246     0.3147     2.2435    55.3737     2.3774     0.0369
   5973.50    10.0000     2.7372     8.7629    15.5804     6.6813     0.3159     2.2368    60.6785     2.1497     0.0751
   5974.00    10.0000     6.7881     8.6207    26.0812    14.8954     0.3531     2.2547    64.7447     2.5718    -0.0400
   5974.50    10.0000     5.7664     8.8603    24.6804    14.2340     0.3350     2.2244    60.7600     2.2896    -0.0295
   5975.00    10.0000    10.7806     8.7357    21.0559     7.5069     0.3289     2.2187    59.9730     2.3050    -0.0176
   5975.50    10.0000     8.4139     8.6240    15.6531     6.5865     0.3565     2.1738    60.9319     1.9794    -0.0219
   5976.00    10.0000     9.2612     8.8984    18.2815     5.4945     0.3271     2.3042    56.2043     2.1134     0.0773
   5976.50    10.0000     5.9966     8.9734    10.0212     4.7273     0.2775     2.2680    64.4343     2.0397    -0.0212
   5977.00    10.0000    -2.6355     8.7596    20.4417    11.1558     0.3338     2.2473    61.9730     1.9689    -0.0155
   5977.50    10.0000     3.2810     8.9799    21.2128     8.5529     0.2852     2.2303    61.5786     2.3106     0.0646
   5978.00    10.0000     9.5082     8.7733    19.8704     6.9550     0.3260     2.1636    61.6436     2.3466     0.0231
   5978.50    15.1469     3.8982     8.7264     7.8197     3.3615     0.2826     2.2275    62.5460     2.2493     0.0394
   5979.00    10.0000     6.6192     8.7016    13.0450     5.6724     0.3075     2.2704    64.5182     1.9997    -0.0362
   5979.50    10.0000     2.4576     8.9286    15.2278     6.1908     0.3095     2.2767    62.4560     2.2273    -0.0212
   5980.00    10.0000    -1.1503     8.6871    20.7905     8.6188     0.3013     2.2672    58.5816     1.7745    -0.0416
   5980.50    10.0000     3.3293     8.8389    20.7645     8.0220     0.3096     2.2522    64.4474     2.4175     0.0321
   5981.00    10.0000     5.4382     8.7097    18.0803     8.8262     0.3372     2.2861    64.2711     1.8892     0.0490
   5981.50    10.0000     0.5613     8.7198    23.0094    10.6638     0.3022     2.2367    63.4465     1.9206    -0.0240
   5982.00    10.0000     2.6078     8.8691    13.9697     4.5905     0.3273     2.2786    66.1103     2.1636    -0.0146
   5982.50    10.0000    -0.9646     8.7283    22.8116     7.4548     0.2970     2.2340    63.0304     2.1773    -0.0128
   5983.00    10.0000     9.2751     8.7260    21.8905     8.3219     0.3124     2.2187    66.3282     2.1179    -0.0619
   5983.50    10.0000     2.1525     8.8800    21.2493     9.8493     0.3226     2.2144    67.2705     1.9063    -0.0270
   5984.00    10.0000    10.8343     8.9267    17.9550     7.3978     0.2961     2.2122    64.8508     2.3509     0.0309
   5984.50    10.0000    11.1598     8.8317    32.8228    11.5444     0.2897     2.2635    60.9150     1.7830    -0.0350
   5985.00    10.0000     3.0561     8.7019    21.9612     9.2561     0.3257     2.2209    62.8216     1.8195     0.0037
   5985.50    10.0000    -1.6358     8.7166    14.1573     5.3004     0.3382     2.2117    66.9856     2.0907    -0.0523
   5986.00    10.0000    -7.0781     8.7759    20.3816     9.7225     0.3141     2.2637    58.8314     1.8553    -0.0058
   5986.50    10.0000    -4.0641     8.8002    23.6957    10.1311     0.3065     2.2516    62.2037     2.3486    -0.0225
   5987.00    10.0000    -3.6286     8.6695    15.8397     5.9487     0.3186     2.2702    62.4061     1.8644    -0.0489
   5987.50    10.0000    10.0771     8.8409    26.1836    10.9698     0.3165     2.2562    60.8948     2.4075     0.0316
   5988.00    10.0000     3.7080     8.7773    21.1652    11.0130     0.3202     2.2178    66.1646     2.2991     0.0339
   5988.50    10.0000     5.0207     8.5974     9.3409     3.3340     0.2647     2.2422    64.7320     2.3351    -0.0388
   5989.00    10.0000    -8.0857     8.6763    20.6236     8.9413     0.2938     2.2432    61.5240     2.4616    -0.0086
   5989.50    10.0000    -3.0300     8.7190    16.6784     6.5780     0.2981     2.2114    65.5295     2.0965     0.0018
   5990.00    10.0000     7.3384     8.7624    22.1195     9.6366     0.3180     2.2054    63.2935     1.8737    -0.0726
   5990.50    10.0000     4.2799     8.9588    24.9769     8.7648     0.3186     2.2177    61.1540     2.0517    -0.0559
   5991.00    10.0000     2.0529     8.7939    19.9377     8.1530     0.3275     2.2987    61.7418     1.9551     0.0515
   5991.50    10.0000     5.5557     8.6862    30.9698    15.4605     0.3198     2.2248    65.2447     1.9227    -0.0426
   5992.00    10.0000    10.8529     8.7926    17.8000     5.9033     0.2885     2.2737    66.8097     2.0908     0.0503
   5992.50    10.0000     1.5109     8.7355    22.6378     6.9410     0.3434     2.2222    62.5885     1.9944    -0.0538
   5993.00    10.0000     2.9050     8.8034    23.8795     7.3775     0.3398     2.2625    65.7383     1.9024     0.0264
   5993.50    10.0000     3.4630     8.8292    18.2050     5.7619     0.2891     2.2624    68.9066     1.9999    -0.0125
   5994.00    10.0000    14.4021     8.8923    23.6625    10.6618     0.3208     2.2635    60.4410     2.1549    -0.0068
   5994.50    10.0000    -8.1138     8.7692    15.6616     4.7292     0.3021     2.2461    65.3411     2.2325     0.0742
   5995.00    10.0000     5.7403     8.9357    16.4807     6.2110     0.3167     2.2753    66.8225     1.7168    -0.0502
   5995.50    10.0000     1.6912     8.8628    12.6109     5.7083     0.3349     2.2449    64.1017     1.9729     0.0238
   5996.00    10.0000     5.0398     8.7015    20.0871     8.7331     0.3563     2.2845    68.1586     2.0015     0.0221
   5996.50    10.0000    -1.1403     8.9934    20.5851     7.6230     0.3287     2.1840    71.0969     1.7894     0.1342
   5997.00    10.0000     1.8421     8.8053    26.5787    11.0453     0.3194     2.2426    65.5872     1.9982    -0.0431
   5997.50    10.0000     5.5842     8.6893    23.6416     9.6615     0.3066     2.2402    63.9132     2.0480    -0.0250
   5998.00    10.0000    17.5317     8.9384    17.1082     6.5431     0.3170     2.2032    67.6018     2.1184     0.0326
   5998.50    10.0000     5.9471     8.9810    13.0772     5.0149     0.3404     2.2482    67.2540     2.0263    -0.0080
   5999.00    10.0000    -2.3938     8.7702    21.1894    13.2540     0.3122     2.1857    57.2283     1.8309    -0.0185
   5999.50    10.0000    -0.3329     8.7233    25.9505    12.2040     0.2953     2.2103    64.8337     2.4057     0.0383
   6000.00    10.0000    -0.5420     8.7566    23.3090    15.3126     0.2805     2.1695    63.7153     2.1654    -0.0107
   6000.50    10.0000    -7.3141     8.8456    25.7116     9.3116     0.3230     2.2758    66.1464     2.1064    -0.0357
   6001.00    10.0000    -0.0476     8.9021    17.4151     6.8487     0.3176     2.2217    64.4326     2.1931     0.0290
   6001.50    10.0000     5.2056     8.8315    16.1227     4.9407     0.2996     2.2932    64.8153     2.0374     0.0150
   6002.00    10.0000    -4.8913     8.7849    14.8566     5.0543     0.3329     2.2518    62.5386     2.2420    -0.0125
   6002.50    10.0000     6.6605     8.9247    18.2114    10.6562     0.3039     2.2407    67.3893     1.9925    -0.0144
   6003.00    10.0000     3.7950     8.7438    18.0751     6.5133     0.3095     2.2093    70.2083     1.9778    -0.0366
   6003.50    10.0000    -2.3773     8.8784    19.6762    11.5534     0.3117     2.1950    62.7578     2.1008     0.0290
   6004.00    10.0000     0.5239     8.7467    17.7770     5.5453     0.3049     2.2417    61.1673     2.2854    -0.0144
   6004.50    10.0000     9.1606     8.8188    17.7413     5.7483     0.3165     2.2234    65.4761     2.2689    -0.0308
