~VERSION INFORMATION
 VERS.                  2.0 : CWLS LOG ASCII STANDARD -VERSION 2.0
 WRAP.                   NO : ONE LINE PER DEPTH STEP
~WELL INFORMATION
 STRT.FT        5000.0000           :START DEPTH
 STOP.FT        6500.0000           :STOP DEPTH
 STEP.FT           0.5000           :STEP
 NULL.          -999.25             :NULL VALUE
 WELL.           MELANIE-1          :WELL NAME
 UWI.            42-123-45678       :UNIQUE WELL ID
 FLD.            SOUTH PARS         :FIELD NAME
 LOC.            OFFSHORE ABU DHABI :LOCATION
 CTRY.           UAE                :COUNTRY
 OPER.           ADNOC              :OPERATOR
 SRVC.           SCHLUMBERGER       :SERVICE COMPANY
 DATE.           2024-03-15         :LOG DATE
~CURVE INFORMATION
 DEPT.FT         00 001 00 0        :DEPTH
 GR   .GAPI      00 031 00 0        :GAMMA RAY
 SP   .MV        00 060 00 0        :SPONTANEOUS POTENTIAL
 CALI .IN        00 022 00 0        :CALIPER
 RT   .OHMM      00 060 00 0        :DEEP RESISTIVITY (AT90)
 RXO  .OHMM      00 060 00 0        :FLUSHED ZONE RESISTIVITY
 NPHI .V/V       00 042 00 0        :NEUTRON POROSITY (LIME)
 RHOB .G/C3      00 045 00 0        :BULK DENSITY
 DT   .US/F      00 046 00 0        :SONIC TRANSIT TIME
 PEF  .B/E       00 050 00 0        :PHOTOELECTRIC FACTOR
 DRHO .G/C3      00 045 00 0        :DENSITY CORRECTION
~PARAMETERS
 MUD .           WATER              :MUD TYPE
 BHT .F          180.0000           :BOTTOM HOLE TEMPERATURE
 FD  .G/C3       1.0000             :FLUID DENSITY
~ASCII DATA
# ...
   5603.00    34.6415   -34.7391     8.3214     9.0509     4.3473     0.1699     2.5063    54.1642     4.6918    -0.0175
   5603.50    34.8576   -24.6532     8.5644    10.1618     4.0958     0.1920     2.5627    59.6614     4.5504    -0.0401
   5604.00    28.8432   -25.9022     8.6861    12.6181     5.1803     0.2046     2.5659    61.9948     4.5449    -0.0360
   5604.50    53.9638   -21.4566     8.4121    13.7034     4.0573     0.1442     2.5380    65.6881     4.0972     0.0247
   5605.00    29.9194   -22.7683     8.3213    10.8657     3.8885     0.1927     2.6125    59.1062     4.2988     0.0353
   5605.50    34.2302   -15.9920     8.4102     6.3450     2.8146     0.1393     2.4813    57.7486     4.3526    -0.0131
   5606.00    33.9291   -29.1811     8.4527     8.4534     3.6953     0.1469     2.5734    55.0962     4.0349    -0.0173
   5606.50    46.7387   -19.5602     8.5082    14.8121     7.5639     0.1521     2.5713    52.1737     4.6007    -0.0341
   5607.00    37.1226   -16.8993     8.3932     4.9867     1.9472     0.1785     2.5661    58.2958     4.7150     0.0375
   5607.50    49.3670   -10.3112     8.6083    16.2406     4.9223     0.1694     2.5552    64.7707     4.8382     0.0012
   5608.00    33.8999   -21.9067     8.3419    13.3303     6.5870     0.1658     2.5664    61.4870     4.2182     0.0147
   5608.50    41.4225   -17.7792     8.2799    16.9607     9.0415     0.1724     2.5759    60.9793     4.4524     0.0143
   5609.00    32.4104   -28.3244     8.5650    10.7924     5.1665     0.1816     2.5280    58.3215     4.6950    -0.0123
   5609.50    56.1569   -31.1685     8.2273     6.1864     2.3949     0.1834     2.5587    58.6185     4.3812    -0.0466
   5610.00    29.3975   -14.8886     8.4349    13.0951     6.4548     0.1923     2.5442    50.2240     4.3200    -0.0398
   5610.50    41.2793   -19.0441     8.7676    16.9094    13.4282     0.2071     2.5169    59.7382     4.0617     0.0451
   5611.00    43.7734   -13.0276     8.4551    15.2598     6.2461     0.1706     2.5712    55.6682     4.6628    -0.0290
   5611.50    41.9159   -25.6911     8.3447     9.5004     2.9232     0.1609     2.5327    55.2566     4.4339    -0.0164
   5612.00    37.0256   -16.1286     8.4515    11.9232     4.2416     0.1840     2.5047    56.3478     4.2933    -0.0454
   5612.50    37.3716    -9.2881     8.4527     9.9237     4.4984     0.1491     2.5334    56.2025     4.4973    -0.0486
   5613.00    38.6628   -16.4379     8.4743     9.1276     2.6486     0.1588     2.5256    55.0765     4.4726    -0.0308
   5613.50    37.0385   -17.0577     8.5250    15.5801     6.4468     0.1927     2.5804    57.2272     4.4770     0.0675
   5614.00    45.8276   -18.3021     8.3553     8.1859     3.5331     0.1705     2.5541    55.4669     4.4013     0.0263
   5614.50    55.7028   -26.1037     8.6285     8.9872     4.8868     0.1491     2.5909    57.3990     4.7705    -0.0211
   5615.00    33.4607   -11.3759     8.4848     8.4572     4.3963     0.1438     2.5294    52.5930     4.4206     0.0433
   5615.50    26.8642   -21.1126     8.5334     7.5490     3.5896     0.1749     2.5756    56.3689     4.7725    -0.0061
   5616.00    37.0183   -15.4404     8.3984    12.3627     3.2087     0.1971     2.6345    53.6788     4.5628     0.0542
   5616.50    58.2641   -25.6827     8.5904    16.8014     8.0799     0.1972     2.5599    55.0001     4.5214     0.0885
   5617.00    31.0988   -23.6696     8.4365    11.2435     5.1790     0.1772     2.5750    57.3115     4.4298     0.0411
   5617.50    50.5429   -10.5017     8.4905     7.5820     3.1921     0.2154     2.5700    52.0263     4.6485     0.0038
   5618.00    50.7533   -19.3185     8.3699    15.3591     4.3465     0.1735     2.5064    54.3282     4.4775     0.0280
   5618.50    32.8046   -10.2206     8.3640    19.8393     6.7938     0.1731     2.5666    58.4596     4.2697     0.0006
   5619.00    41.6868   -17.7832     8.5330     9.8779     3.1288     0.1249     2.5582    52.4705     4.2642    -0.0734
   5619.50    50.0637   -26.5067     8.4204    10.4105     2.7830     0.1676     2.5411    62.0010     4.5430    -0.0262
   5620.00    33.9051   -12.7421     8.3798    14.0592     5.6204     0.1939     2.5224    60.2382     4.2782    -0.0381
   5620.50    35.2109   -20.0572     8.4014    19.6355     6.6958     0.2085     2.5696    55.0991     4.4484    -0.0271
   5621.00    32.0876   -13.5196     8.5361    10.3503     6.9991     0.1610     2.5196    54.1789     4.6734     0.0717
   5621.50    28.5244   -16.7925     8.4038     8.1288     3.1436     0.1871     2.6127    57.1042     4.5238     0.0449
   5622.00    31.3496   -24.5397     8.4554    14.6838     7.6080     0.1991     2.5520    52.1140     4.3197     0.0176
   5622.50    26.6536   -15.9082     8.4692    15.4747     4.5226     0.1788     2.5119    50.4081     4.7472     0.0325
   5623.00    36.6191    -5.6543     8.2765    12.2251     4.3981     0.1332     2.5331    54.9948     4.5759    -0.0757
   5623.50    30.0879   -14.0763     8.3216    10.3435     4.2184     0.1841     2.5401    55.9290     4.6709     0.0291
   5624.00    38.0192   -16.7346     8.5028    16.5149     5.5088     0.1948     2.6207    56.5730     4.0148     0.0376
   5624.50    23.6029   -10.9763     8.3960    14.3895     5.2897     0.1609     2.5217    54.4041     4.5355    -0.0896
   5625.00    38.5982   -15.2057     8.5759     9.7736     3.7427     0.1751     2.5447    60.0288     4.6388     0.0306
   5625.50    42.5205   -15.1175     8.5674    12.5168     4.7779     0.1574     2.5320    51.6804     4.8114    -0.0570
   5626.00    19.8034   -21.5295     8.5431     8.2396     4.7764     0.1294     2.5630    52.7100     4.1795    -0.0788
   5626.50    38.6468   -14.8085     8.6537    15.2159     6.5646     0.2017     2.5323    57.5438     4.7145     0.0531
   5627.00    45.3767   -10.7069     8.4639    11.4731     5.0512     0.1814     2.5137    52.5581     4.8031    -0.0403
   5627.50    25.7792   -19.9709     8.5376    10.9142     4.8632     0.2138     2.5420    52.4014     4.0716    -0.0286
   5628.00    48.7378    -8.5747     8.4147    12.3420     5.5803     0.1993     2.5388    56.3319     4.5717     0.0396
   5628.50    38.6102   -16.0623     8.7189    12.6422     4.9738     0.1754     2.5299    52.7608     4.6004    -0.0122
   5629.00    29.5188   -19.9494     8.6725    16.3709     6.1415     0.1812     2.5314    55.4818     4.4124    -0.0072
   5629.50    34.6136   -10.4292     8.4759    14.9757     6.1935     0.1945     2.5830    53.7413     4.3806    -0.0081
   5630.00    39.4272   -16.7583     8.5138    11.9920     6.0455     0.2028     2.5378    53.2158     4.6130     0.0139
   5630.50    35.4694   -11.4338     8.6116    15.8366     7.9350     0.1903     2.5133    49.4539     4.3573    -0.0091
   5631.00    39.0721   -16.5972     8.4614    14.2320     5.4256     0.2062     2.5333    56.1396     4.4376     0.0046
   5631.50    27.2973   -15.3448     8.4110    11.1266     5.1894     0.1785     2.5487    51.9396     4.6443    -0.0201
   5632.00    35.9183   -12.4851     8.5646    12.2061     4.6961     0.1649     2.5069    55.1369     4.8334     0.0141
   5632.50    23.1543   -13.4059     8.4855    12.1450     4.8910     0.1838     2.5957    54.0658     4.5910     0.0126
   5633.00    33.4748   -24.7455     8.4965    14.8054     5.3870     0.1896     2.5728    54.9432     4.5108     0.0759
   5633.50    27.0340   -20.2816     8.3952    11.4195     4.4048     0.1618     2.5896    55.0745     4.3815    -0.0153
   5634.00    28.2815    -9.9360     8.3074    11.3625     5.9435     0.1594     2.5584    56.0652     4.2834    -0.0074
   5634.50    43.9551   -15.1515     8.5033    23.1055     9.4146     0.1954     2.4837    53.2621     4.7081     0.0096
   5635.00    42.6973   -17.0174     8.5706    17.0026     6.9876     0.1787     2.5925    59.1346     4.4562     0.0386
   5635.50    38.7404   -21.0996     8.4581    10.2293     3.0634     0.1838     2.5204    49.8255     4.7177    -0.0437
   5636.00    25.0293   -19.6134     8.6248    15.2824     5.7464     0.1803     2.5227    54.6493     4.4222     0.0041
