~VERSION INFORMATION
 VERS.                  2.0 : CWLS LOG ASCII STANDARD -VERSION 2.0
 WRAP.                   NO : ONE LINE PER DEPTH STEP
~WELL INFORMATION
 STRT.FT        5000.0000           :START DEPTH
 STOP.FT        6500.0000           :STOP DEPTH
 STEP.FT           0.5000           :STEP
 NULL.          -999.25             :NULL VALUE
 WELL.           MELANIE-1          :WELL NAME
 UWI.            42-123-45678       :UNIQUE WELL ID
 FLD.            SOUTH PARS         :FIELD NAME
 LOC.            OFFSHORE ABU DHABI :LOCATION
 CTRY.           UAE                :COUNTRY
 OPER.           ADNOC              :OPERATOR
 SRVC.           SCHLUMBERGER       :SERVICE COMPANY
 DATE.           2024-03-15         :LOG DATE
~CURVE INFORMATION
 DEPT.FT         00 001 00 0        :DEPTH
 GR   .GAPI      00 031 00 0        :GAMMA RAY
 SP   .MV        00 060 00 0        :SPONTANEOUS POTENTIAL
 CALI .IN        00 022 00 0        :CALIPER
 RT   .OHMM      00 060 00 0        :DEEP RESISTIVITY (AT90)
 RXO  .OHMM      00 060 00 0        :FLUSHED ZONE RESISTIVITY
 NPHI .V/V       00 042 00 0        :NEUTRON POROSITY (LIME)
 RHOB .G/C3      00 045 00 0        :BULK DENSITY
 DT   .US/F      00 046 00 0        :SONIC TRANSIT TIME
 PEF  .B/E       00 050 00 0        :PHOTOELECTRIC FACTOR
 DRHO .G/C3      00 045 00 0        :DENSITY CORRECTION
~PARAMETERS
 MUD .           WATER              :MUD TYPE
 BHT .F          180.0000           :BOTTOM HOLE TEMPERATURE
 FD  .G/C3       1.0000             :FLUID DENSITY
~ASCII DATA
# ...
   6172.50    17.7530   -29.2380     8.8280    17.3097     6.0244     0.2043     2.1638    89.6835     1.4946     0.0672
   6173.00    10.0000   -38.9700     8.8547    12.2945     6.2467     0.2393     2.1592    88.0666     1.3622    -0.0672
   6173.50    10.0000   -38.0581     8.9247     7.6048     3.6286     0.2393     2.1977    90.6105     1.6051    -0.0139
   6174.00    14.7794   -27.9934     8.6455    13.3339     5.9618     0.2262     2.1489    95.3758     1.8173     0.0314
   6174.50    10.0000   -25.1946     8.7404    18.0410     8.1575     0.2676     2.0976    90.3162     1.6662     0.0339
   6175.00    17.8823   -26.4861     8.8389    17.0285     6.0227     0.1986     2.1696    88.8549     1.4155    -0.0134
   6175.50    14.4246   -27.6255     8.8730    14.0394     8.1429     0.1852     2.2144    82.1964     1.7435     0.0401
   6176.00    15.0430   -22.7519     9.0152    17.2160     6.9461     0.2147     2.1717    82.6312     1.5152     0.0325
   6176.50    10.0000   -31.3611     8.8913    11.3896     4.8394     0.2432     2.1267    87.3263     1.7268    -0.0273
   6177.00    19.4423   -24.2886     8.7900    13.4998     4.7425     0.2075     2.1179    81.2073     1.5118     0.0126
   6177.50    11.9230   -37.0232     8.7066     9.0935     3.0193     0.2087     2.1218    88.2035     1.6578     0.0281
   6178.00    10.0000   -33.4878     8.7391    12.1462     5.3451     0.2470     2.2105    80.0081     1.4852    -0.0244
   6178.50    11.1531   -38.0982     8.7362    16.5391     6.9098     0.2369     2.1406    89.9251     1.4920     0.0678
   6179.00    10.0000   -30.5372     8.8609     9.2773     3.1690     0.2349     2.1306    85.5588     1.2790    -0.0334
   6179.50    13.4487   -29.4943     8.8210     8.5291     2.5587     0.2426     2.1458    86.9591     1.6964     0.0058
   6180.00    10.0000   -28.7925     8.6628    11.3438     3.5198     0.2182     2.1411    84.3896     1.6698    -0.0500
   6180.50    10.0000   -29.1535     8.7515    10.2669     5.2167     0.2188     2.1976    80.9944     1.6828     0.0041
   6181.00    10.0000   -34.2007     8.8827    13.3186     4.7125     0.2422     2.1202    90.4493     1.6544    -0.0427
   6181.50    19.4294   -30.6141     8.8301     9.5441     3.5675     0.1988     2.1861    90.8074     1.4487    -0.0118
   6182.00    10.0000   -37.2502     8.8517    18.2636     9.7639     0.1825     2.1544    85.8009     1.7961    -0.0635
   6182.50    22.9726   -23.0468     8.8330     7.3886     2.3613     0.2164     2.1870    88.8962     1.8033     0.0320
   6183.00    10.0000   -31.4811     8.9573    15.8066     5.4670     0.2433     2.1983    85.7926     1.4490     0.0143
   6183.50    10.0000   -32.5074     8.8181     8.6046     2.9513     0.2295     2.1535    87.8856     1.7149     0.0435
   6184.00    10.0000   -22.2182     8.7558     6.2991     3.4824     0.2412     2.1415    89.3523     1.7853    -0.0139
   6184.50    20.9406   -36.4742     8.7028    11.5651     6.8921     0.1834     2.1530    88.7949     1.5182     0.0454
   6185.00    10.0000   -35.9909     8.8192     9.9510     4.6260     0.2297     2.1482    91.2071     1.5549     0.0016
   6185.50    10.0000   -35.9440     8.5501     7.6797     3.5929     0.2362     2.1014    88.7954     1.7229     0.0045
   6186.00    12.5990   -30.9023     8.7756     6.4525     2.2981     0.1957     2.1978    87.3775     1.3159     0.0846
   6186.50    15.4216   -28.5048     8.7734    10.6309     6.2773     0.2397     2.1586    85.0633     1.4022    -0.0194
   6187.00    20.4352   -27.0645     8.6574    14.2451     6.0114     0.2199     2.1164    85.9664     1.4240     0.0491
   6187.50    23.1727   -18.0029     8.7009    12.6357     5.9946     0.2832     2.0894    89.8863     1.2646     0.0192
   6188.00    10.0000   -42.2100     8.8746    10.7556     4.2124     0.1779     2.0816    83.0048     1.8429    -0.0229
   6188.50    10.0000   -28.0191     8.8166    12.1755     4.6160     0.2485     2.1746    90.8818     1.2303    -0.0526
   6189.00    10.0000   -33.9484     8.8036    10.4329     5.8199     0.2129     2.1330    86.7749     1.6986    -0.0413
   6189.50    14.0229   -34.1948     8.8240     6.8315     3.0441     0.1881     2.1380    85.2164     1.7943     0.0452
   6190.00    10.0000   -34.4615     8.8025     6.8314     3.6529     0.2096     2.1664    84.4299     1.5753     0.0694
   6190.50    10.0000   -36.0065     8.9174     9.8176     4.1328     0.2254     2.1363    89.8030     1.5024     0.0037
   6191.00    14.9592   -23.1399     8.8054     9.9170     3.3477     0.2402     2.1683    87.7896     1.6848     0.0058
   6191.50    11.9093   -27.4510     8.6471    13.3972     4.7688     0.2536     2.1548    92.6534     1.6407     0.0311
   6192.00    12.6506   -31.6464     8.9558    12.9907     5.3044     0.2473     2.1495    84.1514     1.8431     0.0029
   6192.50    10.0000   -25.1072     8.8297    12.3774     4.3679     0.1992     2.1049    86.2596     1.1189     0.0440
   6193.00    10.7248   -39.5248     8.7336     9.4643     3.0336     0.2408     2.1276    87.7708     1.4630     0.0117
   6193.50    10.0000   -38.7155     8.6671     6.7848     3.4510     0.2257     2.1703    85.8451     1.7612     0.0054
   6194.00    19.8698   -43.0517     8.8319    11.5856     4.1558     0.2044     2.1319    88.1722     1.6611    -0.0280
   6194.50    21.1205   -35.7588     8.7805    11.9525     4.9150     0.2129     2.1886    89.1655     1.8037    -0.0378
   6195.00    10.0000   -31.5531     8.9495     4.9732     2.1107     0.2026     2.2229    89.7135     1.7079    -0.1264
   6195.50    10.0000   -31.9471     8.7574     7.9055     2.8113     0.2173     2.1723    92.8315     1.6307     0.0494
   6196.00    10.0000   -31.8145     8.7082     8.2298     4.4001     0.2016     2.1975    84.4554     1.5995    -0.0059
   6196.50    10.0000   -39.7163     8.8814    10.4625     3.3470     0.1953     2.1744    89.4319     2.1272    -0.0160
   6197.00    12.6240   -28.7450     8.8842     7.9128     3.3351     0.2251     2.1369    86.5305     1.9714    -0.0781
   6197.50    10.0000   -31.6624     8.8084     9.9268     4.1711     0.2278     2.1590    89.8139     1.7658    -0.0256
   6198.00    10.0000   -29.2950     8.8591     9.3999     3.7194     0.2111     2.2135    89.8704     1.6847    -0.0309
   6198.50    10.0000   -42.5238     8.7875     9.5190     2.9377     0.2419     2.1375    85.6681     1.7790    -0.0318
   6199.00    15.3139   -31.6022     8.8146     8.0307     3.8234     0.2090     2.1221    85.9778     1.8390     0.0133
   6199.50    14.3018   -39.1981     8.9076     8.1960     3.8040     0.2078     2.1194    90.2684     1.7598     0.0049
   6200.00    10.0000   -35.3456     8.8535     7.1593     2.5018     0.2267     2.1470    88.8559     1.5281    -0.0545
   6200.50    15.3446   -30.7868     8.7739    11.0634     5.0980     0.2106     2.1235    88.1789     2.0376    -0.0519
   6201.00    10.0000   -33.1028     8.9259    11.6822     5.0367     0.2146     2.2039    90.8637     1.7324    -0.0520
   6201.50    11.9401   -37.9155     8.5541     7.7886     2.4115     0.1621     2.1603    91.1369     2.0883     0.0724
   6202.00    27.5928   -33.7260     8.9957    15.4428     5.2073     0.2125     2.1831    87.4046     1.7254     0.0597
   6202.50    25.0208   -41.5146     8.6197     8.8787     4.4594     0.1753     2.1451    86.4891     1.6412    -0.0341
   6203.00    10.0000   -28.2051     8.7275    15.3970     6.5520     0.1871     2.1199    85.3112     1.9696    -0.0791
   6203.50    21.1191   -35.0824     8.7860     8.0008     2.8588     0.1845     2.1150    89.2489     1.7555     0.0051
   6204.00    21.0646   -28.5627     8.7753     5.2660     1.7741     0.1900     2.1271    84.9305     1.7244     0.0019
   6204.50    10.0000   -36.8875     8.8905    10.8803     3.9258     0.1996     2.1649    89.5497     1.4602     0.0127
   6205.00    21.3084   -36.9722     8.6839    10.3594     3.7913     0.2005     2.1702    92.9532     1.8348     0.0297
   6205.50    27.1541   -38.2746     8.8156     9.6859     3.2713     0.2232     2.1728    88.2935     1.6066     0.0181
