~VERSION INFORMATION
 VERS.                  2.0 : CWLS LOG ASCII STANDARD -VERSION 2.0
 WRAP.                   NO : ONE LINE PER DEPTH STEP
~WELL INFORMATION
 STRT.FT        5000.0000           :START DEPTH
 STOP.FT        6500.0000           :STOP DEPTH
 STEP.FT           0.5000           :STEP
 NULL.          -999.25             :NULL VALUE
 WELL.           MELANIE-1          :WELL NAME
 UWI.            42-123-45678       :UNIQUE WELL ID
 FLD.            SOUTH PARS         :FIELD NAME
 LOC.            OFFSHORE ABU DHABI :LOCATION
 CTRY.           UAE                :COUNTRY
 OPER.           ADNOC              :OPERATOR
 SRVC.           SCHLUMBERGER       :SERVICE COMPANY
 DATE.           2024-03-15         :LOG DATE
~CURVE INFORMATION
 DEPT.FT         00 001 00 0        :DEPTH
 GR   .GAPI      00 031 00 0        :GAMMA RAY
 SP   .MV        00 060 00 0        :SPONTANEOUS POTENTIAL
 CALI .IN        00 022 00 0        :CALIPER
 RT   .OHMM      00 060 00 0        :DEEP RESISTIVITY (AT90)
 RXO  .OHMM      00 060 00 0        :FLUSHED ZONE RESISTIVITY
 NPHI .V/V       00 042 00 0        :NEUTRON POROSITY (LIME)
 RHOB .G/C3      00 045 00 0        :BULK DENSITY
 DT   .US/F      00 046 00 0        :SONIC TRANSIT TIME
 PEF  .B/E       00 050 00 0        :PHOTOELECTRIC FACTOR
 DRHO .G/C3      00 045 00 0        :DENSITY CORRECTION
~PARAMETERS
 MUD .           WATER              :MUD TYPE
 BHT .F          180.0000           :BOTTOM HOLE TEMPERATURE
 FD  .G/C3       1.0000             :FLUID DENSITY
~ASCII DATA
# ...
   5502.50    60.7579   -53.8761     8.4894     4.0966     1.5301     0.1404     2.5130    66.3283     3.5751     0.0008
   5503.00    64.6991   -43.4069     8.4892     6.7916     3.3706     0.1256     2.5111    71.8442     3.8822     0.0474
   5503.50    62.5463   -42.6022     8.4993     7.0450     2.3082     0.0857     2.4875    67.5460     3.7208    -0.0575
   5504.00    65.7886   -36.8974     8.3846     6.9362     2.1599     0.0993     2.4771    68.9104     3.6667     0.0051
   5504.50    53.0373   -39.8541     8.3591     3.6407     2.1407     0.1361     2.5368    69.7431     3.5102    -0.0233
   5505.00    67.7852   -46.8982     8.4436     4.7240     1.6566     0.1141     2.5320    62.4958     4.0060     0.0656
   5505.50    58.7535   -44.6984     8.4299     6.9925     2.1519     0.0885     2.4876    64.3501     3.5430    -0.0228
   5506.00    73.7014   -38.6830     8.3263     5.5616     1.5702     0.0953     2.5005    68.9368     3.8096     0.0608
   5506.50    51.5121   -39.9747     8.3981     4.0018     1.9847     0.1260     2.5580    66.4444     3.6349    -0.0239
   5507.00    70.8395   -42.3778     8.3545     6.3711     2.3803     0.1320     2.4971    71.5466     3.9835     0.0308
   5507.50    58.4611   -41.7892     8.2731     4.5051     1.7129     0.1127     2.5288    63.6782     3.7656     0.0101
   5508.00    51.5924   -35.8070     8.4880     9.6155     3.7256     0.1621     2.5183    70.1320     3.8097    -0.0055
   5508.50    52.8583   -41.7790     8.3649     8.9692     4.3933     0.1293     2.5394    64.2472     3.8206    -0.0316
   5509.00    54.0921   -39.5336     8.5647     6.7996     2.6239     0.1082     2.4988    67.2594     3.9054     0.0129
   5509.50    59.9736   -28.1461     8.1977     8.5781     5.4834     0.0970     2.5275    65.0623     3.8516    -0.0176
   5510.00    60.6882   -46.0167     8.3050     5.8450     2.4014     0.0940     2.5301    73.9026     3.8445    -0.0276
   5510.50    51.8409   -48.0600     8.3644     7.2499     3.5861     0.1205     2.5322    64.1167     3.7536     0.0589
   5511.00    56.1605   -34.7852     8.4753     9.0238     4.2402     0.1042     2.5280    67.7089     3.5464     0.0219
   5511.50    73.4182   -41.9988     8.4020     6.2674     2.4887     0.1477     2.5362    62.8346     3.6417     0.0257
   5512.00    70.0249   -40.0991     8.3935     5.4210     1.9282     0.1438     2.5919    72.7538     4.0132    -0.0157
   5512.50    59.6195   -42.3159     8.2502     3.5274     1.5078     0.1273     2.6032    69.0990     3.8124    -0.0074
   5513.00    56.3572   -39.6113     8.2477     5.7666     2.5544     0.0913     2.5075    68.2462     3.7449    -0.0099
   5513.50    56.9374   -30.2218     8.3961     7.6072     2.7136     0.1017     2.4574    72.1983     3.6006     0.0135
   5514.00    60.8092   -34.1060     8.2278     7.9311     3.2797     0.1405     2.5450    68.1578     3.5418     0.0257
   5514.50    47.6424   -33.7075     8.3115     6.9825     3.5764     0.1044     2.5330    68.3145     3.7491    -0.0012
   5515.00    53.6893   -45.0018     8.4152     5.1278     3.1030     0.1383     2.5595    67.9913     4.0714    -0.0317
   5515.50    42.3230   -43.5784     8.2674     3.3500     1.5897     0.1256     2.5365    69.2273     3.7864     0.0304
   5516.00    58.7887   -51.9199     8.5266     5.2508     3.0485     0.1174     2.5299    65.9995     3.9819     0.0013
   5516.50    60.6956   -41.6733     8.4889     5.5875     1.9707     0.1025     2.5623    66.7743     3.7852    -0.0576
   5517.00    51.5754   -32.7447     8.2098     5.6004     2.5778     0.1149     2.5667    69.7887     4.0376    -0.0854
   5517.50    67.9556   -34.8452     8.2741     7.4420     3.8905     0.1208     2.4873    68.1303     3.8434     0.0119
   5518.00    45.4802   -38.4392     8.1393    11.2695     3.7680     0.1379     2.5047    66.8960     3.6713    -0.0332
   5518.50    43.4937   -37.3448     8.2900     6.4770     2.3510     0.0998     2.5263    62.9778     3.8679     0.0172
   5519.00    56.9266   -40.5794     8.4454     5.8765     3.3276     0.1125     2.5326    71.6142     4.2924    -0.0310
   5519.50    63.4299   -36.0128     8.3278     5.8297     1.9187     0.1189     2.5231    65.0764     4.2875     0.0053
   5520.00    68.4465   -33.1087     8.4157     6.5717     2.0103     0.1315     2.5432    69.9632     4.0308    -0.0151
   5520.50    51.2258   -44.9190     8.2178     4.9614     2.6939     0.1003     2.5603    67.4696     3.9100     0.0701
   5521.00    63.4480   -35.2428     8.4503     6.6254     3.3668     0.0924     2.5823    63.0028     4.0020     0.0380
   5521.50    54.4320   -31.9803     8.3155     7.3504     3.2056     0.1325     2.5482    70.5809     4.0085     0.0539
   5522.00    53.2804   -38.6193     8.3727     6.8693     2.7227     0.0889     2.5055    67.5287     3.9411     0.0010
   5522.50    61.6519   -32.9416     8.3626     7.4338     2.7238     0.1452     2.5269    70.7121     4.0411     0.0329
   5523.00    59.7222   -22.2732     8.2452     7.4149     3.1380     0.1166     2.5293    66.0999     3.9984     0.0037
   5523.50    41.8134   -36.7694     8.2575     3.8435     2.1086     0.0890     2.5472    68.7004     3.8974     0.0588
   5524.00    66.1576   -34.1823     8.4700     7.9531     3.3367     0.1106     2.5437    61.2418     3.7254    -0.0029
   5524.50    65.3065   -39.7403     8.4136     5.3964     3.3295     0.1281     2.5938    64.9700     3.8762    -0.0559
   5525.00    49.1817   -35.0449     8.4792     4.7721     1.5951     0.1101     2.5187    62.5929     4.1320    -0.0799
   5525.50    57.2729   -33.5509     8.4071     4.7812     1.9050     0.1214     2.5443    65.2289     3.9696     0.0667
   5526.00    57.9789   -34.7791     8.3894     7.6183     2.8282     0.1360     2.6036    67.7101     4.0397     0.0191
   5526.50    56.0320   -40.7528     8.2029     6.2850     2.0235     0.1174     2.5156    64.4223     3.9268     0.0218
   5527.00    49.4640   -34.5235     8.3489     4.0746     1.5807     0.1030     2.5377    68.7691     3.7753     0.0596
   5527.50    48.4131   -28.1453     8.3737     7.8239     3.4020     0.1160     2.5053    63.5493     3.9432    -0.0661
   5528.00    53.5012   -33.1140     8.5722     4.4206     1.9637     0.1505     2.5363    68.7164     3.7902    -0.0143
   5528.50    63.0069   -30.4482     8.4460     7.1311     4.4029     0.1562     2.5106    69.9316     3.7812    -0.0094
   5529.00    57.8931   -36.3440     8.5314     7.3773     3.2382     0.0824     2.5657    68.9847     4.2433     0.0297
   5529.50    50.4984   -31.3103     8.4380     8.9967     4.5294     0.1448     2.5389    64.8533     3.9219    -0.0277
   5530.00    59.5559   -33.5642     8.3076    11.8224     4.7919     0.1283     2.5066    59.4513     3.8613    -0.0481
   5530.50    30.5127   -39.6159     8.3909     4.6199     2.5849     0.1420     2.5601    67.5161     4.3369    -0.0484
   5531.00    62.4098   -33.1694     8.4032     6.8778     4.4446     0.1128     2.5405    65.3358     4.1800     0.0460
   5531.50    39.2205   -39.6212     8.2862     6.4584     2.8729     0.0887     2.5639    62.7183     3.9463    -0.0297
   5532.00    50.1570   -37.7278     8.3421     8.0256     2.6322     0.1360     2.5011    63.9268     4.1098    -0.0221
   5532.50    44.0174   -33.5174     8.3604     7.5490     2.7057     0.1057     2.5468    69.8410     3.9808     0.0254
   5533.00    42.5354   -32.8784     8.5420     6.3926     2.7054     0.0971     2.5592    62.0679     3.8931    -0.0280
   5533.50    62.0974   -40.2114     8.1738     6.2514     2.7396     0.0987     2.5235    66.8271     4.1302    -0.0682
   5534.00    48.9870   -28.8959     8.5030     5.1259     2.3577     0.1374     2.4986    66.0183     3.9740    -0.0633
   5534.50    55.4182   -31.2063     8.2892     9.6767     4.2439     0.1284     2.5353    64.2346     4.0575    -0.0023
   5535.00    52.1883   -37.4905     8.2461     8.2916     3.3213     0.1415     2.5736    67.1828     4.2503     0.0199
   5535.50    56.2974   -41.5552     8.5018     9.5535     3.3648     0.1395     2.5707    70.0884     4.2318    -0.0081
