~Version
VERS.   2.0 : CWLS LOG ASCII STANDARD - VERSION 2.0
WRAP.   NO : ONE LINE PER DEPTH STEP
~Well
STRT .FT  4000.0000 : START DEPTH
STOP .FT  4800.0000 : STOP DEPTH
STEP .FT  1.0013 : STEP
NULL .  -999.25 : NULL VALUE
WELL .  HAWKINS-01 : WELL NAME
UWI .  42-227-30442 : UNIQUE WELL ID
FLD .  HAWKINS FIELD : FIELD
OPER .  EAST TEXAS OIL CO : OPERATOR
SRVC .  SCHLUMBERGER : SERVICE COMPANY
DATE .  2024-03-15 : LOG DATE
API .  42227304420000 : API NUMBER
~Curve
DEPT .FT : MEASURED DEPTH
GR .GAPI : GAMMA RAY
SP .MV : SPONTANEOUS POTENTIAL
CAL .IN : BOREHOLE CALIPER
RT .OHMM : DEEP RESISTIVITY (ARRAY INDUCTION)
NPHI .V/V : NEUTRON POROSITY (LIMESTONE)
RHOB .G/C3 : BULK DENSITY
DT .US/F : SONIC TRANSIT TIME (COMPRESSIONAL)
~Parameter
MUD .  : DRILLING MUD TYPE
BHT .F 185.0 : BOTTOM HOLE TEMPERATURE
~A
# ...
 4109.1364    14.99   -95.02   8.60      22.36   0.0689   2.3441    78.19
 4110.1377    20.11  -106.76   8.55     102.42   0.1089   2.2349    71.17
 4111.1389    11.94  -104.37   8.67      52.29   0.1777   2.1050    79.26
 4112.1402    20.74  -111.13   8.78      72.43   0.1859   2.2537    63.62
 4113.1414    15.30   -80.98   8.50      26.31   0.1260   2.2790    63.75
 4114.1427    18.82   -80.36   8.57      42.28   0.1391   2.1788    68.58
 4115.1439    15.90  -111.18   8.78      63.56   0.1562   2.3085    64.59
 4116.1452    12.37   -91.29   8.55      33.64   0.1749   2.0952    55.04
 4117.1464    28.75   -81.82   8.53      18.12   0.0682   2.1337    73.29
 4118.1477    24.18  -105.55   8.67     178.29   0.1715 -999.2500    73.79
 4119.1489     8.67  -117.95   8.76      46.28   0.1222   2.1133    73.67
 4120.1502    26.98   -99.01   8.64      90.13   0.1176   2.1216    63.63
 4121.1514    17.58   -86.34   8.80      34.26   0.1136 -999.2500    68.06
 4122.1527    27.91  -117.74   8.70      28.98   0.1264   2.0734    64.00
 4123.1539    25.72  -102.26   8.52      33.86   0.1918   2.1782    55.40
 4124.1552    16.56  -106.23   8.80      34.07   0.1322   2.2097    69.06
 4125.1564     6.71  -114.29   8.62      51.05   0.1930   2.3196    58.09
 4126.1577    13.11  -119.62   8.59      50.94   0.0770   2.3493    57.00
 4127.1589    20.20  -101.18   8.67      44.34   0.1586   2.2760    73.89
 4128.1602    22.78   -86.05   8.59      14.97   0.1718   2.3412    55.24
 4129.1615    13.70  -104.10   8.53      44.20   0.1519   2.2861    78.98
 4130.1627    11.06  -100.07   8.50      16.60   0.1410   2.3390    67.88
 4131.1640    28.79  -109.99   8.63      14.59   0.1347 -999.2500    79.58
 4132.1652    32.89   -77.52   8.75     163.46   0.1791   2.0739    56.45
 4133.1665    21.80   -86.68   8.67      61.24   0.1732   2.1706    69.59
 4134.1677    13.35  -117.35   8.80      72.11   0.0683   2.2440    63.73
 4135.1690    16.27  -118.06   8.59      33.32   0.1773   2.1552    76.09
 4136.1702    10.35  -117.64   8.58     152.27   0.1121   2.1320    64.03
 4137.1715    33.18  -112.03   8.55      67.60   0.0881   2.2232    61.51
 4138.1727    13.72   -99.08   8.55     100.16   0.1805   2.3301    76.44
 4139.1740    25.64  -103.85   8.59      30.17   0.1148   2.0605    64.37
 4140.1752    18.55  -121.46   8.74     177.42   0.1713   2.2808    55.42
 4141.1765    26.03  -102.29   8.77    -999.25   0.0895   2.2668    64.76
 4142.1777    28.95  -101.94   8.79     129.13   0.0506   2.3392    71.36
 4143.1790    33.89   -78.62   8.57      16.75   0.1243   2.3292    61.36
 4144.1802    18.80   -94.52   8.76      22.52   0.0650   2.2787    65.80
 4145.1815    14.42  -104.85   8.60      23.53   0.1632   2.2061    56.42
 4146.1827    18.06   -90.54   8.53      22.51   0.0914   2.1113    69.70
 4147.1840    37.64   -86.15   8.76     129.69   0.1165   2.2136    73.91
 4148.1852    37.49   -86.31   8.69      11.00   0.0631   2.2796    65.33
 4149.1865    31.07   -96.32   8.55      12.56   0.0930   2.3187    65.51
 4150.1877    31.65   -90.34   8.63      22.72   0.1672   2.2869    57.21
 4151.1890    33.75  -100.86   8.59      18.20   0.0727   2.1086    60.05
 4152.1902    22.00  -999.25   8.72      20.03   0.1471   2.2299    58.87
 4153.1915    40.95   -94.13   8.64     109.18   0.1876   2.1497    67.04
 4154.1927    29.03   -90.50   8.80      54.03   0.1520   2.0528    68.23
 4155.1940    28.61   -95.03   8.52      10.17   0.1717   2.1101    78.72
 4156.1952    32.45  -109.91   8.61      36.19   0.0663 -999.2500    56.83
 4157.1965    21.10   -90.74   8.64      33.94   0.0876   2.3028    70.00
 4158.1977    24.51  -110.19   8.65      14.07   0.1842   2.1276    68.16
 4159.1990    39.22  -104.24   8.59      75.80   0.1573   2.1354    67.91
 4160.2003    23.24  -113.25   8.72      81.93   0.1459   2.3380    76.83
 4161.2015    36.63   -97.27   8.76      86.68   0.1496   2.1637    60.14
 4162.2028    28.06  -105.12   8.78      88.67   0.1121   2.0529    56.02
 4163.2040    32.01   -94.73   8.74      10.00   0.0567   2.1352    71.81
 4164.2053    29.83  -106.64   8.76     174.21   0.1677   2.0858    63.63
 4165.2065    31.82  -102.60   8.67     114.63 -999.2500   2.0808    55.44
 4166.2078    41.20   -95.88   8.75     150.01   0.1209   2.0732    61.28
 4167.2090    30.92   -93.84   8.59      10.48   0.1850   2.2280    62.73
 4168.2103    37.91   -88.10   8.62     164.05   0.1004   2.1068    70.42
 4169.2115    35.88  -108.98   8.60     113.13   0.0941   2.1584    59.31
 4170.2128    40.78   -83.16   8.64     122.81   0.1809   2.3086    65.33
 4171.2140    47.80  -102.88   8.59      13.22   0.1695   2.1773    67.06
 4172.2153    42.85   -94.24   8.79      91.45   0.1272   2.3247    66.48
 4173.2165    30.05   -97.03   8.59     177.37   0.0696   2.1994    79.35
 4174.2178    25.57  -112.35   8.53      76.35   0.0823   2.1697    56.14
 4175.2190    31.44  -107.28   8.66      55.25   0.1484   2.2751    78.77
 4176.2203    39.82  -113.48   8.52     169.94   0.1078   2.0720    69.55
 4177.2215    26.27   -85.69   8.53      37.69   0.1755   2.0768    74.89
 4178.2228    37.41   -81.98   8.57      60.21   0.1925   2.2456    65.76
 4179.2240    39.91  -117.41   8.64      41.66   0.1708   2.1961    66.35
 4180.2253    33.31   -84.66   8.63     163.55   0.1066   2.2871    76.98
 4181.2265    44.17   -90.84   8.74      12.56   0.1683   2.3249    77.40
 4182.2278    27.47   -83.23   8.72      44.87   0.1027   2.1665    60.97
 4183.2290    26.58   -95.89   8.63      78.30   0.0751   2.2289    59.98
 4184.2303    42.77   -79.61   8.60     107.22   0.0550   2.2002    67.41
 4185.2315    36.80  -114.73   8.59      57.35   0.1079   2.3445    77.51
 4186.2328    41.44   -87.96   8.73     152.24   0.1855   2.2993    63.06
 4187.2340    34.89  -101.34   8.52     168.10   0.0858   2.3235    71.30
 4188.2353    29.96   -79.03   8.50      12.12   0.0810   2.1263    72.70
 4189.2365    44.02   -99.44   8.74      33.38   0.1955   2.2818    74.47
 4190.2378    43.26   -90.08   8.64      10.73   0.0538   2.1296    69.10
 4191.2390    40.35  -121.17   8.54      26.83   0.1679   2.1126    65.06
 4192.2403    29.48  -108.71   8.57      49.94   0.0982   2.3333    79.18
 4193.2416    37.10   -84.81   8.78     153.10   0.0556   2.0558    70.28
 4194.2428    31.02  -100.28   8.76     126.30   0.1877   2.3396    73.21
 4195.2441    23.92  -125.46   8.71      14.65   0.0709   2.0948    63.62
 4196.2453    44.18  -111.80   8.64      13.21   0.1328   2.2958    71.75
 4197.2466    24.27  -124.21   8.66      58.43   0.0911   2.1328    61.44
 4198.2478    44.19   -87.19   8.79      49.24   0.0598   2.1552    61.13
 4199.2491    31.16  -105.81   8.79      22.21   0.0575   2.1150    72.87
 4200.2503    24.19   -73.07   8.56     147.98   0.0673   2.2257    68.03
 4201.2516    32.66   -87.67   8.74     160.89   0.0607   2.1544    72.08
 4202.2528    40.48  -128.40   8.56      33.40   0.1641   2.2472    61.74
 4203.2541    36.49   -95.42   8.56     143.98   0.1228   2.0547    69.97
 4204.2553    37.87  -119.80   8.70      31.59   0.1014   2.0693    66.10
 4205.2566    33.69  -108.51   8.62      90.91   0.1128   2.0799    69.92
 4206.2578    34.04  -124.65   8.78      41.61   0.1893   2.1757    62.27
 4207.2591    37.46  -119.76   8.53      14.44   0.1866   2.2944    72.89
 4208.2603    21.98  -100.05   8.65     161.16   0.1574   2.3165    75.15
 4209.2616    27.47   -83.22   8.78      38.98   0.1827   2.1234    61.50
 4210.2628    20.27   -88.23   8.77      90.28   0.0979   2.2223    62.52
 4211.2641    38.93   -83.40   8.55      30.04   0.1072   2.2805    71.53
 4212.2653    37.34   -85.21   8.61      10.58   0.1421   2.1366  -999.25
 4213.2666    14.23   -94.57   8.69      13.51   0.1435   2.1727    72.60
 4214.2678  -999.25  -111.26   8.55      44.22   0.1223   2.2072    72.07
 4215.2691    35.40  -100.28   8.79      79.01   0.1101   2.0905    64.82
 4216.2703    16.30   -99.35   8.77    -999.25   0.1979   2.0578    64.87
 4217.2716  -999.25  -103.21   8.55      80.33   0.1732   2.0958    61.37
