~Version
VERS.   2.0 : CWLS LOG ASCII STANDARD - VERSION 2.0
WRAP.   NO : ONE LINE PER DEPTH STEP
~Well
STRT .FT  4000.0000 : START DEPTH
STOP .FT  4800.0000 : STOP DEPTH
STEP .FT  1.0013 : STEP
NULL .  -999.25 : NULL VALUE
WELL .  HAWKINS-01 : WELL NAME
UWI .  42-227-30442 : UNIQUE WELL ID
FLD .  HAWKINS FIELD : FIELD
OPER .  EAST TEXAS OIL CO : OPERATOR
SRVC .  SCHLUMBERGER : SERVICE COMPANY
DATE .  2024-03-15 : LOG DATE
API .  42227304420000 : API NUMBER
~Curve
DEPT .FT : MEASURED DEPTH
GR .GAPI : GAMMA RAY
SP .MV : SPONTANEOUS POTENTIAL
CAL .IN : BOREHOLE CALIPER
RT .OHMM : DEEP RESISTIVITY (ARRAY INDUCTION)
NPHI .V/V : NEUTRON POROSITY (LIMESTONE)
RHOB .G/C3 : BULK DENSITY
DT .US/F : SONIC TRANSIT TIME (COMPRESSIONAL)
~Parameter
MUD .  : DRILLING MUD TYPE
BHT .F 185.0 : BOTTOM HOLE TEMPERATURE
~A
# ...
 4653.8173   111.93   -11.76   8.73       2.33   0.3906   2.3777    83.06
 4654.8185    99.87   -13.81   9.56       2.49   0.4225   2.2906   111.14
 4655.8198    88.18   -16.28   8.75       1.86   0.4142   2.2630    82.79
 4656.8210    94.90   -25.72   9.68       3.34   0.3394   2.3882   102.27
 4657.8223    98.54   -14.58   9.46       2.77   0.3368   2.3699    89.92
 4658.8235   110.31   -15.15   9.75       1.14   0.4449   2.3687    89.74
 4659.8248   107.74   -19.01   8.52       2.28   0.3012   2.3025   119.63
 4660.8260    99.58   -10.57   8.89       4.24   0.4320   2.3579   110.27
 4661.8273   125.22    -3.44   9.48       3.76   0.3300   2.2359   113.48
 4662.8285   110.39   -18.47  10.40       3.90   0.4421   2.3146   102.88
 4663.8298    96.03   -18.72   9.27       3.79   0.3513   2.3968   114.84
 4664.8310    90.99   -10.74   9.35       2.24   0.3661   2.2582   105.82
 4665.8323    93.38   -11.19   9.93       1.40   0.4061   2.3589   117.85
 4666.8335    97.44    -3.81   9.71       2.09   0.3882   2.2981    91.25
 4667.8348    94.35   -18.21   9.10       4.33   0.3477   2.2080   103.81
 4668.8360    95.68   -18.29   9.32       4.92   0.3831   2.3526   107.61
 4669.8373    99.89   -23.43   8.94       2.98   0.4096   2.2337    95.72
 4670.8385    95.68   -24.82  10.43       1.04   0.3064   2.3263   115.19
 4671.8398   124.85   -12.79   8.76       1.56   0.3017   2.2171   119.19
 4672.8411    92.39    -7.19   9.24       2.29   0.3687   2.3894    99.75
 4673.8423   110.35    -3.46   8.55       3.31   0.3198   2.2583    95.63
 4674.8436   105.95   -11.76   8.94       1.30   0.3997   2.2453    98.88
 4675.8448   128.97   -12.85  10.06       4.77   0.3321   2.2258   114.11
 4676.8461    94.27   -22.37   8.90       2.46   0.3649   2.3892   105.82
 4677.8473   105.79   -16.84   8.66       4.65   0.3297   2.3424    81.79
 4678.8486   128.72    -7.30   9.45       4.12   0.3823   2.3483   101.69
 4679.8498   124.60   -17.36   8.52       4.02   0.3174   2.2999    80.69
 4680.8511   122.68   -16.83   8.67       3.43   0.3035   2.2949   111.14
 4681.8523   100.31   -16.89  10.12       3.51   0.3077   2.2220    93.13
 4682.8536    96.79  -999.25  10.04       3.55   0.4431   2.3120    98.88
 4683.8548   116.64    -9.46  10.33       3.51   0.3213   2.2494   111.95
 4684.8561   126.99   -10.54  10.21       3.21   0.4063   2.3954    81.86
 4685.8573   111.97   -14.08   9.87       4.95   0.3102   2.3593    86.34
 4686.8586   112.43    -9.85   8.60       3.93   0.3162   2.2826    95.92
 4687.8598   100.61    -7.58  10.07       4.11   0.3763   2.2303    89.20
 4688.8611   120.01   -18.14  10.19       4.49   0.3697   2.3571    93.52
 4689.8623    96.51    -8.75  10.10       1.86   0.4427   2.2244   119.93
 4690.8636   101.75   -21.48   9.52       1.34   0.4417   2.2379   113.02
 4691.8648   105.57   -14.31   8.97       2.93   0.4169   2.2423  -999.25
 4692.8661   108.59   -19.96  10.19       3.06   0.3903   2.3114   117.48
 4693.8673    97.69   -16.97   9.95       4.32   0.3682   2.3574    93.64
 4694.8686    92.28   -16.11  10.46       2.78   0.3534   2.2629    91.88
 4695.8698   111.78   -13.96   8.81       3.28   0.4421   2.2169    89.36
 4696.8711    98.55   -19.94   8.95       3.11   0.3904   2.2929   113.20
 4697.8723   109.89   -18.99   8.92       1.15   0.3869   2.3496   107.18
 4698.8736    92.43    -7.98  10.09       3.46   0.3348   2.2443    89.45
 4699.8748   105.10   -17.23   8.87       4.31   0.3070   2.2440    95.08
 4700.8761   106.75    -6.52   8.63       1.63   0.4418   2.3894   100.27
 4701.8773    87.09   -17.48  10.50       3.38   0.3471   2.3908   101.13
 4702.8786    98.04   -17.17   8.55       3.37   0.3664   2.3981   115.55
 4703.8798    89.50   -19.13  10.17       1.66   0.3172   2.3615    95.22
 4704.8811    86.20   -15.53   9.23       1.49   0.4255   2.2376   116.34
 4705.8824   122.79   -16.64  10.18       4.92   0.3041   2.2424    97.65
 4706.8836    95.61   -12.95   9.61       2.57   0.4251   2.2680   109.85
 4707.8849   114.63    -1.70  10.30       1.91   0.3210   2.2636   117.21
 4708.8861    91.93   -19.92  10.35       1.69 -999.2500   2.3913   116.30
 4709.8874   108.51   -10.75   8.52       3.67   0.4095   2.3578    82.28
 4710.8886   111.16   -27.23   8.65       3.44   0.3247   2.3448    88.23
 4711.8899   104.08   -18.39   9.00       3.57   0.3849   2.2372    99.08
 4712.8911    98.61   -21.93   9.84       1.35   0.3469   2.3819    97.26
 4713.8924    95.72   -17.68  10.28       4.57   0.3267   2.3656   105.64
 4714.8936    92.71   -19.91   9.42       2.56   0.4289 -999.2500   117.79
 4715.8949   115.44   -16.71   9.71       2.25   0.3605   2.3742    84.50
 4716.8961   110.99   -18.46   8.88       2.85   0.3598   2.2544  -999.25
 4717.8974   115.88    -8.24  10.11       2.56   0.3255   2.2162    87.70
 4718.8986    81.77    -9.03  10.43       4.45   0.3575   2.3314   115.76
 4719.8999   105.57   -10.82   9.04       4.72   0.4307   2.3308   118.58
 4720.9011   113.40    -9.42   9.49       2.21   0.3545   2.2190  -999.25
 4721.9024    82.67   -12.82   8.67       4.46   0.4427   2.2638  -999.25
 4722.9036    77.64   -16.56   9.62       4.13   0.4419   2.3986   111.41
 4723.9049  -999.25    -9.30   9.51       4.72   0.3217   2.3357   107.89
 4724.9061    97.12   -20.27   8.79       1.98   0.3266 -999.2500    94.19
 4725.9074   107.42   -20.75   9.38       3.31   0.4294   2.2426   115.50
 4726.9086    78.95   -17.62   9.17       2.10   0.3589   2.2158   119.03
 4727.9099   104.81  -999.25   9.54       4.30   0.3007   2.2554   102.31
 4728.9111    80.71   -21.60   9.67       1.02   0.3411   2.2498   102.63
 4729.9124    78.86   -16.66   8.52       3.26   0.3896   2.2469    91.90
 4730.9136    78.58   -16.31  10.02       2.36   0.4199   2.2386   103.38
 4731.9149   104.30   -22.72   9.93       2.29   0.3200   2.3150    97.59
 4732.9161    98.05   -21.77   9.23    -999.25   0.3166   2.2656    92.09
 4733.9174    92.12   -10.07   8.61       4.41   0.4383   2.3641    82.69
 4734.9186    85.32    -9.52  10.01       3.44   0.4127   2.2368    90.11
 4735.9199   105.86    -5.79  10.41       4.41   0.3885   2.2929    87.91
 4736.9212    86.28   -11.53   8.98       2.06   0.4154   2.2027   101.68
 4737.9224   103.09   -11.66   9.15       3.08   0.3643   2.2963   104.07
 4738.9237    87.86   -22.15   8.87       2.80   0.4138   2.2112   104.34
 4739.9249    85.27    -6.87   9.65       1.05   0.3558   2.3955    95.53
 4740.9262    88.61   -13.98   8.81       3.23   0.3366   2.3581    96.85
 4741.9274    82.10   -21.96   9.21       3.65   0.4094   2.2980   113.37
 4742.9287    99.91   -15.00   9.89       3.37   0.3630   2.2173    99.05
 4743.9299    90.11   -10.66   9.62       3.95   0.4472   2.3185   119.51
 4744.9312    79.30   -10.18   9.27       3.29   0.3524   2.3518  -999.25
 4745.9324   106.04   -18.08   9.34       1.27   0.4383   2.2381   105.98
 4746.9337    85.48   -15.24   9.62       1.47   0.4399   2.3136    82.01
 4747.9349    91.95   -19.85   8.51       3.39   0.3363   2.3628   106.13
 4748.9362   106.59   -16.79   8.66       2.10   0.4197   2.3536   114.06
 4749.9374    95.44   -16.06  10.26       1.32   0.3650   2.3606   117.70
 4750.9387    75.31   -17.40   8.66       2.72   0.4376   2.3759   119.89
 4751.9399   108.41    -8.65   9.91       3.22   0.3675   2.3875    91.29
 4752.9412    96.13   -22.26  10.34       2.31   0.4116   2.2811   103.01
 4753.9424    84.65    -4.55   9.04       3.88   0.3700   2.3138    98.03
 4754.9437    77.08   -23.53   9.24       3.58   0.3342   2.3581   102.55
 4755.9449   103.55   -19.48   9.64       2.33   0.3299   2.3394    86.30
 4756.9462    96.89   -17.51  10.26       4.02   0.3638   2.3991   114.25
 4757.9474    93.74    -7.72  10.38       3.59   0.4133   2.2027   116.38
 4758.9487   108.49   -18.75   9.98       3.55   0.3908   2.2710    97.99
 4759.9499  -999.25   -13.21   8.67       3.21   0.4033   2.2562    91.22
 4760.9512    79.52   -12.39   9.84       1.05   0.3423   2.2525    85.63
 4761.9524    86.31   -11.37   9.32       3.79   0.3722   2.2445   107.35
