~Version
VERS.   2.0 : CWLS LOG ASCII STANDARD - VERSION 2.0
WRAP.   NO : ONE LINE PER DEPTH STEP
~Well
STRT .FT  4000.0000 : START DEPTH
STOP .FT  4800.0000 : STOP DEPTH
STEP .FT  1.0013 : STEP
NULL .  -999.25 : NULL VALUE
WELL .  HAWKINS-01 : WELL NAME
UWI .  42-227-30442 : UNIQUE WELL ID
FLD .  HAWKINS FIELD : FIELD
OPER .  EAST TEXAS OIL CO : OPERATOR
SRVC .  SCHLUMBERGER : SERVICE COMPANY
DATE .  2024-03-15 : LOG DATE
API .  42227304420000 : API NUMBER
~Curve
DEPT .FT : MEASURED DEPTH
GR .GAPI : GAMMA RAY
SP .MV : SPONTANEOUS POTENTIAL
CAL .IN : BOREHOLE CALIPER
RT .OHMM : DEEP RESISTIVITY (ARRAY INDUCTION)
NPHI .V/V : NEUTRON POROSITY (LIMESTONE)
RHOB .G/C3 : BULK DENSITY
DT .US/F : SONIC TRANSIT TIME (COMPRESSIONAL)
~Parameter
MUD .  : DRILLING MUD TYPE
BHT .F 185.0 : BOTTOM HOLE TEMPERATURE
~A
# ...
 4436.5457    46.02  -123.70   8.78      77.54   0.1866   2.1795    73.86
 4437.5469    36.06   -79.00   8.66      10.61   0.0522   2.2985    58.64
 4438.5482    48.23   -82.31   8.70    -999.25   0.1714   2.1920    76.73
 4439.5494    28.44   -86.20   8.73      43.02   0.1908   2.2988    71.08
 4440.5507    45.27   -88.14   8.54     114.28   0.1684   2.2689    60.74
 4441.5519    42.69  -116.29   8.68     174.59   0.0695   2.1128    58.94
 4442.5532    42.26  -106.58   8.51     160.13   0.0622   2.3347    70.69
 4443.5544    43.80   -91.87   8.65     152.40   0.0531   2.0682    77.52
 4444.5557    41.37  -113.48   8.55      46.38   0.1443   2.3195    72.96
 4445.5569    37.65   -83.66   8.55      29.41   0.1445   2.1413    63.71
 4446.5582    24.91  -107.31   8.61      40.27   0.1980   2.2000    69.68
 4447.5594    22.06  -103.10   8.63      78.99   0.1097   2.1767    62.77
 4448.5607    43.87   -96.70   8.69     141.29   0.0998   2.1016    79.98
 4449.5620    35.85  -121.72   8.52      18.59   0.1437   2.1574    73.72
 4450.5632    39.92  -103.51   8.65     156.53   0.1738   2.1079    70.36
 4451.5645    31.61   -96.31   8.55     114.97   0.1905   2.1112    65.58
 4452.5657    22.05  -122.31   8.67     187.72   0.1705   2.1061    70.45
 4453.5670    21.79   -82.37   8.69     139.71   0.1140   2.1967    63.54
 4454.5682    35.33   -84.17   8.67      23.13   0.1452   2.2894    55.72
 4455.5695    28.47   -84.68   8.72      13.74   0.1784   2.2207    64.88
 4456.5707    22.24   -93.49   8.60      14.00   0.1236   2.3180    78.26
 4457.5720    29.03  -108.14   8.73      23.93   0.0825 -999.2500    70.66
 4458.5732    17.85  -103.78   8.63      62.96   0.0755   2.2568    57.10
 4459.5745    30.29  -105.44   8.65     111.29   0.0500   2.2503    77.12
 4460.5757    21.97   -97.93   8.69     147.89   0.1577   2.1848    61.72
 4461.5770    34.68  -100.34   8.51      64.79   0.0667   2.2568    61.09
 4462.5782    22.00   -76.63   8.70      10.17   0.0866   2.0709    62.43
 4463.5795    25.12  -999.25   8.69      17.47   0.0947   2.3080    69.43
 4464.5807    13.54  -101.00   8.59      13.48   0.1341   2.2833  -999.25
 4465.5820    14.57  -102.99   8.53      29.70   0.1097   2.1236    67.29
 4466.5832    22.09  -112.40   8.53      44.90   0.1512   2.2804    72.94
 4467.5845    23.79   -81.25   8.78      11.39   0.0583   2.0538    62.91
 4468.5857    26.33   -85.18   8.71      28.40 -999.2500   2.1152    74.55
 4469.5870    18.16   -90.84   8.54      17.10   0.1249   2.0695    59.38
 4470.5882    27.79   -89.96   8.61      69.48   0.1005   2.2841    74.57
 4471.5895    31.48   -86.42   8.68      40.18   0.0944   2.2768    71.60
 4472.5907    29.05  -104.00   8.75      44.10   0.0601   2.2941  -999.25
 4473.5920    10.13   -85.90   8.51      36.01   0.1844   2.0513  -999.25
 4474.5932    20.75  -100.54   8.57     175.31   0.1538   2.2004    71.68
 4475.5945    10.98   -92.70   8.77      19.03   0.0682   2.2615    56.99
 4476.5957    14.04   -87.24   8.50      47.01   0.0598 -999.2500    76.29
 4477.5970    32.31   -92.72   8.56      90.69   0.1962   2.2449    56.39
 4478.5982    10.88  -110.60   8.79      53.02   0.1522   2.0752    58.72
 4479.5995    19.47  -105.66   8.68     161.69   0.1126   2.1044    69.42
 4480.6008    22.17  -115.64   8.58      31.03   0.1553 -999.2500    73.49
 4481.6020    24.00   -80.37   8.52      40.11   0.1634   2.2461    56.91
 4482.6033    20.19  -111.57   8.51      13.04   0.1670   2.0938    78.02
 4483.6045     6.21   -92.10   8.57      61.99   0.1217   2.1056    79.34
 4484.6058    13.93  -113.89   8.76      23.71   0.1145   2.1113    70.15
 4485.6070    18.53  -108.03   8.62      16.16   0.0517   2.1216    67.03
 4486.6083     7.62  -127.27   8.72    -999.25   0.1890   2.1180    73.53
 4487.6095    14.06   -96.00   8.78      49.27   0.1405   2.1685    63.21
 4488.6108     6.02   -85.64   8.62      12.55   0.0805   2.2461    67.33
 4489.6120     7.07   -85.60   8.56      80.98   0.1879   2.1814    77.90
 4490.6133    14.97  -113.41   8.66      64.80   0.1872   2.2828    78.89
 4491.6145     8.33   -99.17   8.77      17.62   0.1984   2.2658    78.18
 4492.6158    19.19  -100.54   8.74      40.81   0.1811   2.0880    61.56
 4493.6170    22.25   -96.94   8.52      86.53   0.1997   2.0647    60.81
 4494.6183    25.07   -88.01   8.71      48.84   0.0867   2.3134    62.44
 4495.6195    10.13   -76.34   8.67      32.70   0.1763   2.0739    66.03
 4496.6208     9.40  -122.36   8.77      26.26   0.1735   2.0945    62.85
 4497.6220     7.94  -105.70   8.54      62.25   0.0846   2.0566    64.36
 4498.6233    21.38  -119.62   8.66     166.65   0.0648   2.2385    70.52
 4499.6245    23.29   -89.69   8.76      74.81   0.1969   2.2247    74.06
 4500.6258     6.61   -96.91   8.62      12.51   0.0944   2.3461    73.39
 4501.6270    29.43  -104.11   8.64      39.75   0.1806   2.3161    75.36
 4502.6283     7.56   -90.16   8.52     144.21   0.0506   2.1733    55.80
 4503.6295    20.05  -116.08   8.58      13.27   0.0532   2.1615    56.19
 4504.6308    24.52  -125.31   8.60     193.44   0.1199   2.1391    74.73
 4505.6320    28.86  -116.44   8.78     171.70   0.0858   2.0957    68.33
 4506.6333    25.25  -103.53   8.58      12.64   0.1535   2.0914    69.45
 4507.6345  -999.25   -98.73   8.64     163.83   0.1348   2.0897    56.31
 4508.6358    16.58   -96.54   8.70      29.68 -999.2500 -999.2500    61.38
 4509.6370    28.83  -117.90   8.55     125.60   0.0744   2.1222    70.96
 4510.6383    10.85   -85.33   8.65      35.02   0.1082   2.1420    76.48
 4511.6395    31.62  -112.60   8.72      37.46   0.0778   2.3385    77.92
 4512.6408    23.36  -110.37   8.76      66.86   0.1688   2.2235    67.51
 4513.6421    30.53  -111.74   8.69     101.77   0.1124   2.3463    68.64
 4514.6433    21.85  -124.47   8.70      11.07   0.0640   2.1617    75.83
 4515.6446    27.08   -88.96   8.54      59.12   0.1227   2.1873    68.44
 4516.6458    24.62  -999.25   8.78      17.50   0.0636   2.1474    67.92
 4517.6471    30.22   -91.15   8.54      28.19   0.0693   2.1049    77.63
 4518.6483    14.45  -100.86   8.73      28.36   0.0859   2.0929    74.75
 4519.6496    14.40   -86.78   8.58      40.76   0.1789   2.3335    77.73
 4520.6508    19.56   -94.72   8.78      27.21   0.1887   2.3460    60.46
 4521.6521    17.87  -115.71   8.72      13.79   0.1739   2.0635    68.11
 4522.6533    36.17  -117.20   8.73      15.47   0.1001   2.0951    76.06
 4523.6546  -999.25   -96.16   8.57      11.05   0.0909   2.1771    57.78
 4524.6558    39.78   -92.43   8.63      40.91   0.1324   2.1059    74.87
 4525.6571    24.30  -115.23   8.69     174.49   0.1583   2.1592    59.57
 4526.6583    20.93   -84.52   8.73      14.14   0.1990   2.0887    75.20
 4527.6596    36.61   -78.66   8.53     170.26   0.0697   2.1870    70.30
 4528.6608    33.83   -92.15   8.79    -999.25   0.0574   2.1315    59.83
 4529.6621    30.30   -98.17   8.77      67.52   0.1542 -999.2500    66.83
 4530.6633    32.20   -85.25   8.58      69.11   0.1748   2.0783    72.05
 4531.6646    36.77  -120.41   8.75     119.01   0.1770   2.1784    70.85
 4532.6658    24.96   -97.97   8.66      13.78   0.1518   2.3450    65.68
 4533.6671  -999.25  -100.60   8.64      45.36   0.1931   2.1486    77.48
 4534.6683    44.50   -83.76   8.59      80.71   0.1267   2.3129    67.98
 4535.6696    36.81  -104.22   8.67      58.01   0.1871   2.3030    67.65
 4536.6708    25.95  -110.29   8.72     121.19   0.1952   2.3356    56.56
 4537.6721    38.36  -104.87   8.62      12.42   0.1771   2.2870    78.05
 4538.6733    23.54  -113.13   8.69      79.18   0.0965   2.2479    59.43
 4539.6746    22.86   -98.61   8.71      49.52   0.0794   2.3070    68.21
 4540.6758    28.88  -107.68   8.71      31.14 -999.2500   2.0727    75.09
 4541.6771    34.33  -114.71   8.52      27.71   0.1180   2.1888    60.39
 4542.6783    44.78  -106.88   8.76      64.23   0.1817   2.3468    68.18
 4543.6796    41.54   -87.99   8.64     144.28   0.0650   2.2809    61.02
