~Version
VERS.   2.0 : CWLS LOG ASCII STANDARD - VERSION 2.0
WRAP.   NO : ONE LINE PER DEPTH STEP
~Well
STRT .FT  4000.0000 : START DEPTH
STOP .FT  4800.0000 : STOP DEPTH
STEP .FT  1.0013 : STEP
NULL .  -999.25 : NULL VALUE
WELL .  HAWKINS-01 : WELL NAME
UWI .  42-227-30442 : UNIQUE WELL ID
FLD .  HAWKINS FIELD : FIELD
OPER .  EAST TEXAS OIL CO : OPERATOR
SRVC .  SCHLUMBERGER : SERVICE COMPANY
DATE .  2024-03-15 : LOG DATE
API .  42227304420000 : API NUMBER
~Curve
DEPT .FT : MEASURED DEPTH
GR .GAPI : GAMMA RAY
SP .MV : SPONTANEOUS POTENTIAL
CAL .IN : BOREHOLE CALIPER
RT .OHMM : DEEP RESISTIVITY (ARRAY INDUCTION)
NPHI .V/V : NEUTRON POROSITY (LIMESTONE)
RHOB .G/C3 : BULK DENSITY
DT .US/F : SONIC TRANSIT TIME (COMPRESSIONAL)
~Parameter
MUD .  : DRILLING MUD TYPE
BHT .F 185.0 : BOTTOM HOLE TEMPERATURE
~A
 4000.0000    86.25   -12.50   8.85       2.40   0.4443   2.3098   117.40
 4001.0013   109.55    -4.20   9.22       3.21   0.3980   2.2007   102.61
 4002.0025   101.08   -11.17   9.77       2.44   0.4257   2.2080   104.46
 4003.0038    96.04   -15.17   8.64       1.50   0.3788   2.2402    82.76
 4004.0050    78.65   -15.49   9.22       3.36   0.3312   2.2372   114.58
 4005.0063    78.99   -17.26   9.57       3.10   0.3787   2.2510    91.42
 4006.0075    75.42   -13.61  10.49       1.81   0.3833   2.2610   104.60
 4007.0088   108.12   -13.81   9.45       2.81   0.4114   2.2720   119.16
 4008.0100    97.90   -20.70  10.13       4.19 -999.2500   2.2841   103.82
 4009.0113   102.58   -13.48   9.36       3.36   0.3552   2.2198   108.99
 4010.0125    75.50   -21.85  10.09       1.39   0.3546   2.2085    97.81
 4011.0138   113.90   -16.48   9.69       3.19   0.4439   2.3348    82.41
 4012.0150   108.85   -21.80  10.27       3.81   0.3666   2.3075   111.90
 4013.0163    84.50   -18.28   9.32       4.17   0.4133   2.2888    81.40
 4014.0175    83.74   -21.14   9.71       3.52   0.4126   2.3269   108.03
 4015.0188    84.28   -18.84   9.76       1.61   0.3398   2.3655    80.92
 4016.0200    89.59   -18.31   9.33       3.84   0.3858   2.2855   114.49
 4017.0213    98.90    -7.82   8.79       3.71   0.4341   2.3282    86.31
 4018.0225    95.68   -10.14   8.69       1.10   0.3713   2.3907   100.57
 4019.0238    90.54   -23.72   8.53       2.65 -999.2500   2.3679   103.89
 4020.0250   103.87    -8.33  10.25       2.33   0.3322   2.2852    98.30
 4021.0263    85.47    -6.18   8.97       3.68   0.3111   2.3289    93.63
 4022.0275    92.08   -22.53   8.92       1.86   0.4337   2.2354    98.71
 4023.0288    95.55   -12.48   9.97       3.36   0.4272   2.3121    92.46
 4024.0300    99.63   -17.17   9.14       4.65   0.4489   2.3963  -999.25
 4025.0313   113.29   -18.51   9.51       4.19   0.4019   2.3037    94.36
 4026.0325    90.36   -17.48   8.83       4.69   0.4405   2.3855   102.65
 4027.0338   103.43   -28.52  10.42       4.91   0.4240   2.2815    89.52
 4028.0350   107.03   -15.05  10.20       1.04   0.4267   2.3998   119.55
 4029.0363    85.66   -19.50  10.23       3.49   0.3854   2.3158   100.03
 4030.0375   108.56   -18.02   9.31       2.65   0.3574   2.2085    87.77
 4031.0388  -999.25   -24.19  10.02       4.44   0.4402   2.3174    99.08
 4032.0401    87.74   -21.84   8.79       2.01   0.3648   2.2549   114.66
 4033.0413   123.52   -11.54   8.52       4.92   0.3808   2.2065    80.87
 4034.0426   124.60   -19.84   8.54       3.45   0.3669   2.3642   107.18
 4035.0438   118.70   -12.98   9.67       4.17   0.3847   2.2551   101.92
 4036.0451    98.93   -17.21   9.41       1.34   0.3706   2.3593    86.78
 4037.0463    91.01    -7.55   9.54       1.73   0.3072   2.2576   112.70
 4038.0476   114.82   -21.29   8.51       4.03   0.4323   2.2389    94.76
 4039.0488   105.38    -9.10   9.35       1.09   0.3667   2.3948    91.75
 4040.0501  -999.25    -9.63   9.94       4.27   0.3883   2.2723   113.13
 4041.0513   108.17   -13.01   9.39       1.06   0.3209   2.3203   105.54
 4042.0526    90.00   -18.63   9.96       3.63   0.3005   2.3220   115.93
 4043.0538   125.24   -20.98   8.97       2.46   0.3368   2.3121   105.20
 4044.0551    99.44    -9.22  10.13       3.45   0.4057   2.3829   109.63
 4045.0563   115.79   -20.14   9.68       3.78 -999.2500   2.3349   113.46
 4046.0576   101.93   -17.44   8.92       2.37   0.4363   2.2807    82.19
 4047.0588   110.41   -13.93   8.97       1.43   0.3323   2.3725   111.04
 4048.0601   111.61    -4.39   9.76       1.28   0.3307   2.2362   104.55
 4049.0613    97.23   -11.53  10.16       3.36   0.3272   2.3088    82.78
 4050.0626   128.70   -17.54   9.33       3.08   0.3021   2.3901   100.34
 4051.0638   120.97   -21.22   9.02       3.97   0.4158   2.3251    83.30
 4052.0651   127.58   -18.65  10.23       3.04   0.4313   2.3634   109.44
 4053.0663   125.79   -17.02   9.84       2.69   0.3921   2.3307   101.86
 4054.0676   113.89   -10.91   9.40       2.59   0.3282   2.3679   118.14
 4055.0688   126.80   -18.25   9.48       1.11   0.3428   2.3889    87.33
 4056.0701    93.39    -6.40   8.91       2.34   0.3714   2.2546   104.24
 4057.0713    97.60   -12.12   9.75       4.90   0.4432   2.2339    88.46
 4058.0726    91.44    -9.43   9.22       4.49   0.3371   2.2968   104.56
 4059.0738   102.50   -16.33  10.49       2.32   0.4097   2.3404   108.91
 4060.0751   104.87   -20.69   9.46       3.35   0.3659   2.2454   108.89
 4061.0763    99.98   -25.97   9.47       4.39   0.3447   2.2008   112.60
 4062.0776   122.06   -18.86   9.63       2.77   0.3684   2.2686   114.14
 4063.0788   102.94   -13.23  10.33       1.07   0.3107   2.3938    83.09
 4064.0801    99.65    -9.73  10.10       1.30   0.4198   2.3390    93.73
 4065.0814   109.84   -17.55   9.40       3.04   0.3365   2.2803   107.48
 4066.0826    93.47   -15.78   9.94       4.88   0.4088   2.2385    99.94
 4067.0839   119.60   -11.15   9.67       3.77   0.3103   2.2712    87.63
 4068.0851    90.15   -21.73   9.48       1.28   0.4433   2.2340   102.11
 4069.0864   126.29   -12.47   8.88    -999.25   0.3290   2.2213    96.30
 4070.0876   117.33   -15.90   9.43       4.09   0.4324   2.3813    95.60
 4071.0889    93.99   -20.62   8.99       4.37   0.4214   2.3995   112.39
 4072.0901    85.86   -21.35  10.33       3.47   0.4452   2.2328    96.30
 4073.0914   117.84   -21.17   9.17       3.58   0.3717   2.2109    81.06
 4074.0926   113.06   -15.37  10.40       1.11 -999.2500   2.2659    82.32
 4075.0939   113.50   -19.78   9.57       4.31   0.3556   2.2923   114.25
 4076.0951   114.73   -13.17   9.76       4.15   0.3277   2.2410   118.42
 4077.0964    86.38   -21.55   9.59       2.04   0.3665   2.2603   107.54
 4078.0976    97.28    -9.65   8.76       3.83   0.3249   2.2402    94.57
 4079.0989    87.10    -9.67   9.25       1.86   0.4473   2.3549   117.54
 4080.1001   116.50   -12.06   8.70       1.16   0.3144   2.3425   106.51
 4081.1014   106.41   -13.79   9.75       1.80   0.3884   2.3270   113.77
 4082.1026    94.22   -26.39   9.39       1.71   0.3940   2.2774   110.63
 4083.1039    83.03   -10.70  10.06       2.35   0.3807   2.3818    95.17
 4084.1051    92.42   -20.11   8.94       2.67   0.3993   2.3939    99.15
 4085.1064    92.49   -27.19   8.83       3.03   0.3174   2.2347    87.45
 4086.1076   108.17   -18.53   9.31       2.91   0.3833   2.2446    91.68
 4087.1089   103.99   -12.68  10.35       2.08   0.3431   2.3051   111.13
 4088.1101   113.48   -11.14   9.92       1.12   0.4410   2.2183   115.76
 4089.1114    96.39   -12.54   9.34       3.42   0.4143   2.2873   108.98
 4090.1126    81.81   -20.52   9.53       2.58   0.4459   2.3164    98.61
 4091.1139   105.08   -13.01   8.67       2.19   0.3056   2.3044    83.46
 4092.1151   106.52   -16.11  10.47       4.47   0.3428   2.2662    82.28
 4093.1164    98.08   -12.99   9.83       3.99   0.3293   2.3085    94.97
 4094.1176   106.02   -24.33   9.07       4.43 -999.2500   2.3918    98.55
 4095.1189    94.50   -19.37   9.67       2.98   0.3363   2.2412   104.36
 4096.1202    95.24   -16.09   8.72       1.52   0.4018   2.3310    80.26
 4097.1214    91.03   -15.97  10.43       3.78   0.3347   2.2087   119.59
 4098.1227    74.55   -30.79   8.85       1.82   0.3764   2.2133    94.56
 4099.1239    77.48   -14.89   9.80       2.76   0.4332   2.3104   113.92
 4100.1252    13.00   -96.62   8.68      32.45   0.1356   2.2174    77.65
 4101.1264     8.13  -115.64   8.53     178.35   0.1635   2.1055    60.86
 4102.1277    11.68   -98.90   8.60      34.75   0.0666   2.0617    59.94
 4103.1289    21.42   -89.93   8.53      60.54   0.1758   2.0608    55.16
 4104.1302    17.10   -92.80   8.79      83.85   0.1333   2.2995    72.67
 4105.1314    28.63  -103.56   8.74     172.48   0.1535   2.2274    78.44
 4106.1327    26.51   -96.87   8.64      20.81   0.1957   2.1574    59.67
 4107.1339    14.40   -77.74   8.57      93.48   0.0626   2.3183    70.92
 4108.1352    12.15   -87.82   8.78      47.60   0.1852   2.0711    73.66
