~Version
VERS.   2.0 : CWLS LOG ASCII STANDARD - VERSION 2.0
WRAP.   NO : ONE LINE PER DEPTH STEP
~Well
STRT .FT  4000.0000 : START DEPTH
STOP .FT  4800.0000 : STOP DEPTH
STEP .FT  1.0013 : STEP
NULL .  -999.25 : NULL VALUE
WELL .  HAWKINS-01 : WELL NAME
UWI .  42-227-30442 : UNIQUE WELL ID
FLD .  HAWKINS FIELD : FIELD
OPER .  EAST TEXAS OIL CO : OPERATOR
SRVC .  SCHLUMBERGER : SERVICE COMPANY
DATE .  2024-03-15 : LOG DATE
API .  42227304420000 : API NUMBER
~Curve
DEPT .FT : MEASURED DEPTH
GR .GAPI : GAMMA RAY
SP .MV : SPONTANEOUS POTENTIAL
CAL .IN : BOREHOLE CALIPER
RT .OHMM : DEEP RESISTIVITY (ARRAY INDUCTION)
NPHI .V/V : NEUTRON POROSITY (LIMESTONE)
RHOB .G/C3 : BULK DENSITY
DT .US/F : SONIC TRANSIT TIME (COMPRESSIONAL)
~Parameter
MUD .  : DRILLING MUD TYPE
BHT .F 185.0 : BOTTOM HOLE TEMPERATURE
~A
# ...
 4327.4093   108.36   -14.15   9.58    -999.25   0.4157   2.2522   113.03
 4328.4105   100.21   -13.68   8.60       3.59   0.3335   2.3736    92.52
 4329.4118    92.86   -24.29   8.63       2.65   0.3121   2.3288    95.37
 4330.4130    96.71   -19.75   8.87       2.62   0.4312   2.2041   116.38
 4331.4143   112.29   -19.94   8.56       3.72   0.4288   2.3449   113.48
 4332.4155    82.06   -13.62   9.99       1.27   0.3605   2.2071   106.60
 4333.4168    85.63   -20.26   9.95       3.37   0.4054   2.3995    90.67
 4334.4180    82.33   -14.64   8.77       4.09   0.3836   2.3745    84.68
 4335.4193    81.62   -16.81  10.17       4.31   0.4279   2.2595    80.64
 4336.4205   113.71   -18.37   8.81       1.68   0.3473   2.2515    84.28
 4337.4218   107.14  -999.25   9.10       4.59   0.3786   2.2763    91.70
 4338.4230    97.46   -24.03   9.00       3.62   0.3728   2.2712   102.07
 4339.4243    81.91    -1.76   9.24       4.53 -999.2500   2.2745    82.56
 4340.4255    97.18   -17.33   9.01       2.94   0.4337   2.2637    85.45
 4341.4268    95.97    -3.97   9.48       3.17   0.3249   2.3242    87.24
 4342.4280    83.48   -13.17   9.31       4.68   0.3224   2.2329   105.28
 4343.4293    93.45   -11.40  10.47       4.60   0.3865   2.3692   104.63
 4344.4305    91.58   -10.87   8.61       2.79   0.3986   2.3625   102.03
 4345.4318    99.82   -11.45   8.78       2.10 -999.2500   2.2953    90.02
 4346.4330   100.16   -16.34   8.61       2.57   0.3586   2.3705    94.84
 4347.4343    76.15   -13.41   9.75       2.55   0.4420   2.2494    83.87
 4348.4355    88.92   -18.39   8.61       2.15   0.3370   2.2035    89.06
 4349.4368    98.58   -14.67  10.17       2.07   0.4003   2.3238   115.91
 4350.4380    93.29    -9.43   9.52       4.44   0.4110   2.2916   119.19
 4351.4393   107.07   -16.72   9.55       1.28   0.3672   2.3134   105.91
 4352.4406    98.82    -9.50   9.62       3.71   0.4406   2.3799   116.67
 4353.4418    78.67    -5.26   8.84       1.69   0.4105   2.3940   105.71
 4354.4431    74.68  -999.25   8.90       2.38   0.3687   2.3269    81.33
 4355.4443    97.27   -11.35   9.14       1.25   0.3854   2.3528   119.87
 4356.4456    72.37   -22.29   9.69       2.08   0.4039   2.2168    83.96
 4357.4468    94.51   -32.06   8.92       4.07   0.3888   2.2321   107.31
 4358.4481   108.47   -15.14   8.73       4.54   0.4318   2.3466    90.11
 4359.4493    93.69   -11.10  10.44       1.89   0.3535   2.2863    95.68
 4360.4506    86.03   -14.05   8.54       2.85   0.3450   2.2892   105.84
 4361.4518    96.09    -8.86  10.11       2.88   0.3321   2.2617    97.46
 4362.4531    88.57   -16.61  10.08       4.49   0.3057   2.3215    90.02
 4363.4543    91.97    -8.84   9.09       4.05   0.3065   2.2370    93.38
 4364.4556   107.73   -10.91   8.77       3.05   0.4305   2.3254    93.66
 4365.4568    85.47   -23.31   8.79       3.68   0.4018   2.2348  -999.25
 4366.4581   108.45   -10.35   9.89       4.39   0.3991   2.2128   111.94
 4367.4593   106.22   -13.50   9.79       1.04   0.3922   2.2661    98.34
 4368.4606    77.87   -12.37  10.07       2.61   0.4274   2.2462    87.99
 4369.4618    72.86   -19.18  10.37       4.63   0.3720   2.3778   112.44
 4370.4631    74.20   -14.01   9.88       3.96   0.4306   2.2110    86.29
 4371.4643    71.00   -12.33   8.81       3.17   0.3539   2.2353    88.42
 4372.4656    74.17   -18.01   8.99       3.12   0.4390   2.3097    94.64
 4373.4668    97.87   -12.20  10.18       2.39   0.4048   2.2962   115.21
 4374.4681    73.57   -16.81   8.92       3.08   0.3386   2.2092    85.27
 4375.4693    83.68   -23.51   8.65       3.62   0.3846   2.2015    84.89
 4376.4706   104.94   -12.60   9.91       2.67   0.3800   2.3976    99.76
 4377.4718    72.32    -7.69   9.31       3.86   0.3207   2.3318    91.06
 4378.4731   104.23   -15.94  10.34       4.44   0.3887   2.2731   102.75
 4379.4743    83.21   -13.32   9.80       1.62   0.3472   2.2941    98.07
 4380.4756    76.97    -5.57   8.68       2.81   0.3079   2.2533    97.40
 4381.4768   100.44   -22.00  10.40       2.63   0.4423   2.2690    84.48
 4382.4781    98.07   -27.53   9.02       3.75   0.3962   2.3298    85.64
 4383.4793   108.37   -18.73   9.17       2.00   0.4315   2.3766   112.84
 4384.4806   103.06   -20.96   9.30       3.56   0.4014   2.2368   115.44
 4385.4819   106.19   -17.25   8.60       4.51   0.3535   2.3681    89.39
 4386.4831    85.74   -20.48   9.49       2.67   0.3769   2.2243    84.54
 4387.4844    81.98  -999.25   8.75       4.64   0.4014 -999.2500    82.14
 4388.4856   105.34   -19.56   9.30       4.97   0.4440   2.2074   104.33
 4389.4869   108.04   -18.41   9.20       1.42   0.3381   2.2282   108.61
 4390.4881   115.85    -8.05  10.05       1.93   0.4312   2.3835    94.91
 4391.4894    93.20   -21.53  10.11       4.80   0.4386   2.2919   107.19
 4392.4906    92.05   -14.30   8.81       4.83   0.4006   2.2155   108.52
 4393.4919   108.71   -15.14   9.23       1.39   0.4397   2.3919   117.41
 4394.4931    91.77   -18.60   9.25       1.06   0.3597   2.3758    82.59
 4395.4944   115.87   -18.86   8.80       1.64   0.4430   2.3509    87.69
 4396.4956   113.47   -13.12  10.10       4.98   0.4054   2.3867    82.74
 4397.4969  -999.25   -14.43   9.91       1.72   0.3063   2.2440   114.72
 4398.4981   110.17    -8.07   8.88       3.01   0.4360   2.3673   111.70
 4399.4994   110.82   -15.48   9.23       4.39   0.3727   2.3380   102.99
 4400.5006    35.09   -87.73   8.68     171.70   0.1727   2.2065    67.08
 4401.5019    17.24  -103.15   8.65     102.60   0.0936   2.2118    69.35
 4402.5031    17.67   -85.43   8.51      23.51   0.1010   2.2053    67.29
 4403.5044    25.70   -89.83   8.80     125.41   0.1904   2.0526    73.33
 4404.5056    30.30   -82.33   8.62      36.52   0.0747   2.0505    69.17
 4405.5069    37.82   -99.45   8.55     119.71   0.0563   2.0793    61.79
 4406.5081    36.10  -124.96   8.70     117.65   0.1181   2.0805    58.64
 4407.5094    30.62   -93.91   8.59      17.61   0.1702   2.2615    70.15
 4408.5106    26.76  -111.60   8.68      81.70   0.1658   2.1115    67.23
 4409.5119    45.27  -126.63   8.68      23.89   0.1879   2.3184    57.40
 4410.5131    31.42  -117.89   8.63      24.38   0.1300   2.3286    64.89
 4411.5144    32.45   -82.86   8.75      24.30   0.0650   2.3428    67.87
 4412.5156    25.64   -93.76   8.58      87.90   0.1383   2.3317    75.67
 4413.5169    41.79  -117.36   8.63      19.91   0.1668   2.1316    56.90
 4414.5181    39.62   -99.62   8.66    -999.25   0.0640   2.2029    63.71
 4415.5194    28.13   -88.33   8.70      85.22   0.0759   2.1026    75.57
 4416.5207    24.98  -101.72   8.74      16.70   0.0518   2.2919    71.21
 4417.5219    40.23  -116.94   8.62      13.68   0.1390   2.3165    62.25
 4418.5232    39.86  -109.37   8.69      20.37   0.1830   2.3054    76.13
 4419.5244    30.58  -101.28   8.55      31.21   0.1506   2.1800    67.33
 4420.5257    47.75  -111.19   8.78      41.61   0.1973   2.2776    67.46
 4421.5269    27.96   -94.45   8.61      11.43   0.0595   2.0793    79.41
 4422.5282    35.18   -90.01   8.72     183.12   0.1855   2.0621    78.68
 4423.5294    48.13  -117.65   8.51      85.43   0.1721   2.2760    63.96
 4424.5307    35.17   -86.00   8.56      26.33   0.0971   2.1776    58.51
 4425.5319    40.75   -99.83   8.65      25.98   0.1960   2.3487    63.14
 4426.5332    34.82   -79.80   8.76      38.33   0.0932   2.0792    55.76
 4427.5344    31.80  -112.04   8.66      65.28   0.1834   2.3067    55.52
 4428.5357    49.58  -102.42   8.78      15.50   0.1821   2.1940    64.89
 4429.5369    35.23  -107.50   8.65      17.61   0.1636   2.2981    78.53
 4430.5382    47.34  -108.39   8.65     131.27   0.1345   2.2951    76.78
 4431.5394    30.70   -95.10   8.54      21.55   0.0680   2.3248  -999.25
 4432.5407    30.22  -110.29   8.74      31.24   0.1298   2.1394    69.13
 4433.5419    25.59   -89.82   8.57     136.00   0.1035   2.3349    55.15
 4434.5432    40.99   -83.78   8.77      72.91   0.1688   2.0955    60.39
 4435.5444    33.78   -93.55   8.77      27.83   0.1637   2.0746    55.62
