~Version
VERS.   2.0 : CWLS LOG ASCII STANDARD - VERSION 2.0
WRAP.   NO : ONE LINE PER DEPTH STEP
~Well
STRT .FT  4000.0000 : START DEPTH
STOP .FT  4800.0000 : STOP DEPTH
STEP .FT  1.0013 : STEP
NULL .  -999.25 : NULL VALUE
WELL .  HAWKINS-01 : WELL NAME
UWI .  42-227-30442 : UNIQUE WELL ID
FLD .  HAWKINS FIELD : FIELD
OPER .  EAST TEXAS OIL CO : OPERATOR
SRVC .  SCHLUMBERGER : SERVICE COMPANY
DATE .  2024-03-15 : LOG DATE
API .  42227304420000 : API NUMBER
~Curve
DEPT .FT : MEASURED DEPTH
GR .GAPI : GAMMA RAY
SP .MV : SPONTANEOUS POTENTIAL
CAL .IN : BOREHOLE CALIPER
RT .OHMM : DEEP RESISTIVITY (ARRAY INDUCTION)
NPHI .V/V : NEUTRON POROSITY (LIMESTONE)
RHOB .G/C3 : BULK DENSITY
DT .US/F : SONIC TRANSIT TIME (COMPRESSIONAL)
~Parameter
MUD .  : DRILLING MUD TYPE
BHT .F 185.0 : BOTTOM HOLE TEMPERATURE
~A
# ...
 4218.2728    33.75  -102.80   8.54      81.09   0.1152   2.2381    58.92
 4219.2741    11.26   -83.72   8.53      82.38 -999.2500   2.0721    72.31
 4220.2753    27.41  -113.02   8.77      43.73   0.0904   2.1069    57.33
 4221.2766    16.98  -101.78   8.56     154.99   0.0650   2.1514    78.44
 4222.2778    32.24  -110.38   8.62      43.30   0.1029   2.0734    75.67
 4223.2791    33.01   -88.59   8.63      38.53   0.1104   2.1075    76.44
 4224.2804    31.96  -118.41   8.68      18.17   0.0525   2.3234  -999.25
 4225.2816    19.84  -103.79   8.52      25.13   0.1722 -999.2500    65.22
 4226.2829    29.19  -102.93   8.57      11.35   0.1039   2.2460    76.17
 4227.2841    28.42  -107.88   8.78      66.72   0.1371   2.1653    58.95
 4228.2854    14.98  -116.98   8.77      21.05   0.0611   2.2518    55.54
 4229.2866    27.43  -100.00   8.73      24.87   0.0762   2.2266    74.62
 4230.2879     7.36  -105.83   8.51     100.66   0.1835   2.1170    56.87
 4231.2891    21.10  -999.25   8.60      26.65   0.1413   2.3042    79.71
 4232.2904    11.72   -99.42   8.69      20.66   0.1925   2.1976    71.87
 4233.2916     8.78  -104.81   8.58      16.59   0.1998   2.2968    73.84
 4234.2929     7.51  -117.56   8.77     101.89   0.1058   2.1718    61.15
 4235.2941    22.83  -999.25   8.69      14.75 -999.2500   2.3454    71.85
 4236.2954    13.79   -92.55   8.52      38.94   0.1788   2.2811    56.08
 4237.2966    23.30  -105.47   8.77      45.66   0.1998   2.3398    75.95
 4238.2979     6.74  -121.03   8.79      78.40   0.1444   2.2043    59.24
 4239.2991    12.93  -118.46   8.52      66.67   0.1693   2.1921    72.43
 4240.3004    18.50   -85.68   8.66     113.44   0.1673   2.2766    60.61
 4241.3016    24.77   -97.10   8.59      11.43   0.1033   2.3141    56.71
 4242.3029    12.99   -84.15   8.62    -999.25   0.1361   2.3392    67.04
 4243.3041    20.71  -126.91   8.55      23.15   0.1750   2.1474    59.23
 4244.3054    27.27  -999.25   8.67      15.49   0.1532   2.2896    73.24
 4245.3066    20.61  -120.18   8.79      23.78   0.0532   2.1132    60.94
 4246.3079    11.15  -116.22   8.65      25.29   0.1005   2.2137    63.56
 4247.3091     6.08  -103.82   8.52      47.75   0.0717   2.1040    69.19
 4248.3104    27.39  -101.14   8.69      73.03   0.0849   2.1542    62.12
 4249.3116     6.35   -83.24   8.60      31.32   0.1858   2.3294    64.45
 4250.3129    82.81   -12.20   9.11       4.49   0.4365   2.3424   116.44
 4251.3141    86.67   -17.13   8.57       3.82   0.3456   2.2634   112.52
 4252.3154   105.56   -12.67   9.15       1.34   0.3675   2.3079    92.20
 4253.3166    84.47    -6.69   9.59       3.60   0.3816   2.3382   103.47
 4254.3179    78.87   -25.76   9.60       3.61   0.3150   2.2843   116.59
 4255.3191    94.68   -12.67   9.21       4.82   0.4398   2.3708    92.83
 4256.3204   110.19   -13.56   9.39       1.01   0.3562   2.3543   112.80
 4257.3217   100.94   -20.58  10.43       1.99   0.3121   2.2129    80.38
 4258.3229    96.27    -8.62   9.25       4.71   0.3581   2.3242    80.15
 4259.3242    77.74    -2.50   9.02       4.73 -999.2500   2.2471   110.39
 4260.3254    98.85  -999.25   8.99       3.88   0.3770   2.3115   110.46
 4261.3267   114.27   -16.84   9.42       4.06   0.4042   2.3914   111.56
 4262.3279    80.70   -15.85  10.02       1.37   0.3083   2.3758   117.20
 4263.3292    96.28   -15.87   8.91       3.06   0.3427   2.2809    84.72
 4264.3304   111.09   -13.78   9.92       1.93   0.4229   2.2583    89.28
 4265.3317   106.09  -999.25   8.54       1.72   0.3120   2.2469   116.15
 4266.3329   104.81   -16.46   9.34       4.24   0.4283   2.3065    87.09
 4267.3342   105.51   -15.48  10.05       1.54   0.3138   2.2228   107.29
 4268.3354    92.28   -10.07   9.18       2.87   0.4252   2.3099   101.22
 4269.3367    90.14   -10.91   9.63       4.75   0.3541   2.2003    83.33
 4270.3379   111.26   -11.64   8.91       1.74   0.3918   2.2648    91.41
 4271.3392   111.79   -15.14   9.98       4.91   0.3229   2.2440   100.81
 4272.3404   114.57   -13.38   8.60       4.98   0.3099   2.3942   114.09
 4273.3417   116.92   -10.60  10.21       3.22   0.3324   2.3454   108.30
 4274.3429   101.34   -23.66   8.90       1.68   0.3192   2.2699  -999.25
 4275.3442   101.45   -11.28  10.25       2.26   0.3469   2.2186    99.84
 4276.3454   113.81   -18.64   9.21       2.70   0.3772   2.3034    91.95
 4277.3467   108.37   -13.75   9.95       2.24   0.3883   2.2427    84.77
 4278.3479   110.93   -10.17   9.14       2.12   0.4185   2.3073    96.36
 4279.3492   115.16   -13.67  10.31       4.89   0.3984   2.3671    81.14
 4280.3504   119.39   -18.62   8.75       1.61   0.3913   2.3232    88.44
 4281.3517    97.77   -13.08   8.86       3.93   0.3618 -999.2500    97.30
 4282.3529    99.72    -7.29   9.49       1.00   0.3711   2.3082    96.74
 4283.3542    88.90   -17.31   8.66       3.38   0.3622   2.3855    81.77
 4284.3554   108.69   -21.06   8.89       4.66 -999.2500   2.3864   103.56
 4285.3567    87.41   -10.92  10.39       2.15   0.3345   2.3025   101.99
 4286.3579  -999.25   -13.47  10.45       1.74   0.3009   2.2612    83.12
 4287.3592   108.45   -13.57   9.25       3.61   0.3977   2.2919   117.73
 4288.3605    98.56   -16.74  10.35       3.85   0.3304   2.2373    83.98
 4289.3617   111.08   -24.08   9.59       3.75   0.4335   2.3273   114.19
 4290.3630    88.99   -17.25   9.04       2.28   0.4289   2.3000    80.01
 4291.3642    89.57   -17.48   9.90       2.01   0.3115   2.2207   115.29
 4292.3655   121.26    -6.93   9.82       4.82   0.3160   2.2395    80.79
 4293.3667   103.03   -18.13  10.48       4.69   0.3743   2.2959   110.31
 4294.3680    93.95   -11.24   9.03       2.83   0.3914 -999.2500    94.47
 4295.3692   109.98   -24.75   9.84       4.38   0.3412   2.3133   109.53
 4296.3705   120.08   -10.22   8.60       2.81   0.4075   2.3363    96.07
 4297.3717    98.09   -14.24   8.73       2.70   0.3892   2.2678    82.84
 4298.3730   114.52  -999.25   8.51       1.63   0.3487   2.3143   110.70
 4299.3742    93.15   -17.33  10.50       2.71   0.3038   2.2895    82.85
 4300.3755  -999.25    -9.52  10.10       3.15   0.4125   2.3318   116.88
 4301.3767   111.17   -21.70  10.07       1.09   0.3322   2.2101    82.04
 4302.3780   111.59   -16.75   9.52       2.78   0.4252   2.2987    99.17
 4303.3792   115.49    -3.07   9.10       4.13   0.3630   2.2592   108.92
 4304.3805   119.04   -18.27   8.80       3.72   0.3866   2.2652    95.73
 4305.3817   129.01   -16.96   9.07       3.54   0.4309   2.3922    88.69
 4306.3830   110.58    -5.03   9.25       4.64   0.4295   2.2365   110.36
 4307.3842   102.77   -17.82  10.01       1.07   0.3557   2.2622   111.37
 4308.3855   121.57    -7.20   9.58       3.23   0.3313   2.3020   116.91
 4309.3867   100.47   -15.88   8.65       4.15   0.4163   2.3726    95.05
 4310.3880   107.05   -18.39   8.54       3.17   0.3650   2.2833   100.25
 4311.3892    92.46   -14.82   8.70       2.30   0.3288   2.3488    94.53
 4312.3905    90.14   -20.98   9.32    -999.25   0.4357   2.3713  -999.25
 4313.3917  -999.25   -17.61  10.37       4.55   0.3297   2.2620   110.04
 4314.3930   122.11    -3.26   9.77    -999.25   0.3039   2.2786    93.59
 4315.3942   116.25    -8.57  10.10       4.51   0.3030   2.2713    97.13
 4316.3955   104.49   -16.78   9.43       3.34   0.3933   2.3666    96.15
 4317.3967    94.77   -18.53   9.22       3.70   0.3993   2.2089   108.51
 4318.3980    93.77   -19.94   8.72       4.22   0.3467   2.2617   116.71
 4319.3992    97.18    -3.45  10.25       3.64   0.3480   2.3359   106.67
 4320.4005   108.78   -19.99  10.07       2.59   0.3509   2.3131    98.86
 4321.4018  -999.25   -16.67   8.84       3.05   0.4020   2.2873   111.17
 4322.4030   112.46   -12.07   9.52       4.21   0.3087   2.3080   105.64
 4323.4043    96.84   -18.47   9.47       2.49   0.4394   2.2395    82.42
 4324.4055   123.42    -6.19   9.75       2.55   0.3334   2.2861    83.83
 4325.4068   114.31   -20.68  10.39       1.38   0.4500   2.3003    81.52
 4326.4080   106.52    -2.51   9.66       4.66   0.3257   2.3802    98.27
