~Version
VERS.   2.0 : CWLS LOG ASCII STANDARD - VERSION 2.0
WRAP.   NO : ONE LINE PER DEPTH STEP
~Well
STRT .FT  4000.0000 : START DEPTH
STOP .FT  4800.0000 : STOP DEPTH
STEP .FT  1.0013 : STEP
NULL .  -999.25 : NULL VALUE
WELL .  HAWKINS-01 : WELL NAME
UWI .  42-227-30442 : UNIQUE WELL ID
FLD .  HAWKINS FIELD : FIELD
OPER .  EAST TEXAS OIL CO : OPERATOR
SRVC .  SCHLUMBERGER : SERVICE COMPANY
DATE .  2024-03-15 : LOG DATE
API .  42227304420000 : API NUMBER
~Curve
DEPT .FT : MEASURED DEPTH
GR .GAPI : GAMMA RAY
SP .MV : SPONTANEOUS POTENTIAL
CAL .IN : BOREHOLE CALIPER
RT .OHMM : DEEP RESISTIVITY (ARRAY INDUCTION)
NPHI .V/V : NEUTRON POROSITY (LIMESTONE)
RHOB .G/C3 : BULK DENSITY
DT .US/F : SONIC TRANSIT TIME (COMPRESSIONAL)
~Parameter
MUD .  : DRILLING MUD TYPE
BHT .F 185.0 : BOTTOM HOLE TEMPERATURE
~A
# ...
 4544.6809    42.19   -76.50   8.58      44.21   0.0887   2.3386    73.99
 4545.6821    34.50   -87.50   8.57     118.30   0.1628   2.2839    69.11
 4546.6834    32.73  -104.18   8.64      33.36   0.0642   2.3125    76.40
 4547.6846    33.56   -99.68   8.77      13.59   0.0981   2.2620    77.36
 4548.6859    49.15  -104.40   8.61      12.02   0.1081   2.2782    71.22
 4549.6871    25.61  -112.87   8.72      11.66   0.1434   2.2070    73.13
 4550.6884    39.79   -68.97   8.76      99.60   0.0702   2.6903    55.26
 4551.6896    35.05   -41.99   8.58      44.26   0.0629   2.6429    61.18
 4552.6909    51.27   -38.37   8.96      26.65   0.0267   2.5654    47.50
 4553.6921    54.75   -56.76   8.88      45.67   0.1387   2.5579    48.02
 4554.6934    33.01   -39.43   8.87      74.13   0.1143   2.6047    48.21
 4555.6946    37.19   -46.17   8.85      69.83   0.0722   2.5158    60.16
 4556.6959    34.24   -56.53   8.60      71.16   0.1020   2.5235    56.02
 4557.6971    40.37   -53.44   8.61      62.51   0.1346   2.5352    53.64
 4558.6984    43.37   -58.87   8.84      30.11   0.0204   2.6549    48.90
 4559.6996    52.22   -67.85   8.61      80.09   0.0376   2.6028    60.18
 4560.7009    49.17   -59.11   8.72      84.24   0.0814   2.5021    52.78
 4561.7021    48.12   -48.55   8.89      27.34   0.1199   2.6347    51.78
 4562.7034    39.90   -67.78   8.89      24.67   0.0054   2.5847    58.74
 4563.7046    54.38   -40.75   8.73      96.15   0.1476   2.6022    57.06
 4564.7059    43.06   -45.87   8.90      80.90   0.0682   2.5428    53.52
 4565.7071    58.05   -66.31   8.92      84.21   0.0539   2.6104    58.55
 4566.7084    47.44   -43.10   8.83      83.29   0.0439   2.6958    51.88
 4567.7096    31.93   -40.83   8.61      47.82   0.0262   2.5147    61.31
 4568.7109    48.12   -41.63   8.64      56.60   0.1187   2.5568    51.13
 4569.7121    37.27   -58.80   8.66      48.11   0.1433   2.5486    49.86
 4570.7134    47.77   -47.04   8.56      21.72   0.0620   2.5497    61.08
 4571.7146    28.91   -50.10   8.64      66.39   0.1429   2.5757    59.74
 4572.7159    31.69   -43.24   8.60      45.11   0.1236   2.6636    50.29
 4573.7171    51.73   -59.28   8.73      56.72   0.0722   2.6826    49.09
 4574.7184    32.46   -53.82   8.95      44.91   0.1011   2.5404    62.09
 4575.7196    50.34   -40.27   8.55      44.14   0.0652   2.6086    60.98
 4576.7209    33.17   -51.20   8.86      26.37   0.0838   2.6274    52.89
 4577.7222    43.64   -33.70   8.84      31.32   0.0087   2.6044    58.85
 4578.7234    44.72   -62.16   8.55      25.83   0.1044   2.5868    49.23
 4579.7247    38.81   -52.75   8.96      27.40   0.0079   2.5384    56.13
 4580.7259    32.11   -62.05   8.78      95.74   0.1226   2.5976    47.34
 4581.7272    28.85   -44.95   8.68      25.59   0.1237   2.5802    54.05
 4582.7284    22.98  -999.25   8.88    -999.25   0.0356   2.6591    48.35
 4583.7297    30.61   -58.05   8.63      51.74   0.0485   2.6527    55.55
 4584.7309    40.59   -59.29   8.85      53.40   0.0722   2.5268    54.59
 4585.7322    48.65   -58.64   8.52      25.62   0.0895   2.5177    55.00
 4586.7334    46.13   -42.90   8.92      71.75   0.0431   2.6816    47.82
 4587.7347    42.48   -39.38   8.72      70.77   0.0889   2.6071    53.51
 4588.7359    42.65   -65.29   8.82      29.30   0.0447   2.6716    60.62
 4589.7372    38.45   -44.38   8.61      31.83   0.0083   2.5116    53.64
 4590.7384    25.82   -50.02   8.84      90.50   0.0004   2.6053    59.87
 4591.7397    44.73   -48.02   8.89      75.54   0.0152   2.6079    53.65
 4592.7409    37.16   -49.30   8.74      61.49   0.1188   2.6721    54.62
 4593.7422    33.38   -45.36   8.81      22.83   0.1442   2.5195    57.15
 4594.7434    19.43   -51.88   8.73      39.21   0.0640   2.5481    64.11
 4595.7447    29.05   -51.91   8.95      49.20   0.0769   2.5813    48.96
 4596.7459    29.01   -57.94   8.75      27.04   0.0220   2.6732    47.59
 4597.7472    40.70   -46.67   8.92      41.15   0.0827   2.6878    57.94
 4598.7484    30.74   -51.54   8.90      52.62   0.0217   2.6985    64.08
 4599.7497    25.35   -52.55   8.71      33.87   0.0917   2.6918    64.82
 4600.7509    42.85   -43.24   8.62      70.29   0.1400   2.5012    55.71
 4601.7522    16.50   -52.74   8.70      77.35   0.0294   2.5095    55.43
 4602.7534    25.49   -55.61   8.91      33.67   0.1147   2.5295    58.61
 4603.7547    13.74   -43.31   8.61      77.13   0.0035   2.5698    57.00
 4604.7559    34.35   -53.40   8.76      23.63   0.0563   2.6660    58.41
 4605.7572    39.40   -60.60   8.90      77.02   0.0166   2.6785    62.73
 4606.7584    19.98   -52.72   8.68      25.57   0.0529   2.5374    60.43
 4607.7597    37.07   -50.44   8.82      22.86   0.0260   2.6239    55.94
 4608.7610    19.85   -63.63   8.62      56.18   0.0560   2.6835    55.31
 4609.7622    38.19   -52.35   8.55      42.75   0.0626   2.5927    58.51
 4610.7635    33.29   -41.38   8.90    -999.25   0.0451   2.5207    55.20
 4611.7647    34.65   -36.53   8.55      35.88   0.0985   2.5916    55.24
 4612.7660    10.90   -47.29   8.64      31.75   0.1378   2.5752    47.29
 4613.7672    39.12   -36.82   8.93      44.77   0.0601   2.6155    50.13
 4614.7685    31.94   -49.37   8.67      41.66   0.0289   2.5877    55.79
 4615.7697    19.21   -44.60   8.99      34.82   0.0406   2.5035    61.81
 4616.7710    34.91   -56.80   8.99      61.08   0.1281   2.6988    52.02
 4617.7722    18.45   -53.28   8.63      67.91   0.0857   2.6087    56.41
 4618.7735    36.19   -46.63   8.52      78.93   0.0683   2.5947    53.21
 4619.7747    13.41   -59.10   8.85      95.73   0.0224   2.6909    48.89
 4620.7760    31.20   -54.44   8.73      30.72   0.0675   2.5312    64.25
 4621.7772    26.39   -50.91   8.55      63.32   0.0418   2.5378    62.38
 4622.7785    13.16   -46.28   8.85      37.72   0.1415   2.6616    48.41
 4623.7797    17.65   -54.11   8.52      59.47   0.1326   2.5522    59.96
 4624.7810    10.92   -64.19   8.94      43.03   0.0126   2.6598    53.26
 4625.7822    24.78   -66.14   8.57      99.00   0.0775   2.5543    64.91
 4626.7835    19.96   -45.63   8.56      64.64   0.0338   2.5066    52.44
 4627.7847    29.09   -46.97   8.59      92.64   0.0616   2.6034    51.30
 4628.7860    20.30   -51.60   8.98      76.67   0.1315   2.5393    57.22
 4629.7872    20.65   -59.96   8.85      85.53   0.0791   2.6516    62.03
 4630.7885    34.23   -44.15   8.90      74.18   0.0501   2.6282    50.47
 4631.7897    13.68   -57.33   8.70      41.88   0.0312   2.6847    59.77
 4632.7910    39.65   -49.20   8.67      29.99   0.1200   2.6566    48.11
 4633.7922    38.48   -62.66   8.62      36.30   0.0937   2.5362    63.54
 4634.7935    33.30   -36.47   8.74      20.66   0.0702   2.6600    48.46
 4635.7947    31.45   -54.32   8.78      46.48   0.0326   2.6283    63.46
 4636.7960    40.81  -999.25   8.82      45.09   0.0501   2.6338    55.83
 4637.7972    20.01   -58.91   8.63      46.58   0.1440   2.6665    55.07
 4638.7985    17.25   -53.28   8.97      95.91   0.0780   2.6148    64.52
 4639.7997  -999.25   -60.46   8.58      86.72   0.0601   2.5932    64.83
 4640.8010    39.60   -58.40   8.98      25.95   0.0782   2.6273    58.70
 4641.8023    17.26   -48.67   8.51      36.21   0.1168   2.5596    49.29
 4642.8035    34.17   -66.08   8.74      39.57   0.0510   2.5365    56.11
 4643.8048    47.03   -53.79   8.67      35.73   0.0268   2.6233    56.52
 4644.8060    43.32   -52.97   8.72      72.30   0.0877   2.5468    56.26
 4645.8073    33.78   -57.65   8.79      46.49   0.0998   2.5160    57.25
 4646.8085    20.54   -56.32   8.72      50.22   0.1069   2.5001    47.34
 4647.8098    44.07   -41.57   8.71      78.93   0.1323   2.6217    59.80
 4648.8110    37.60   -51.59   8.87      73.17   0.0557   2.5724    59.82
 4649.8123    23.58   -44.74   8.84      24.74   0.0113   2.6505    49.08
 4650.8135    84.10   -13.76   9.93       4.70   0.3208   2.3945   115.04
 4651.8148   102.61   -12.33  10.35       1.45   0.3450   2.3117    87.04
 4652.8160   105.10   -19.47   9.53       1.38   0.3422   2.2747    90.60
